@id;@lon;@lat;id_node;distance_node;bBox;name;alt_name;short_name;name:fr;local_name;official_name;old_name;amenity;landuse;leisure;office;school:FR;shop
25210307;0.7169000;47.3967000;16308;0.0006872614640724737;;Relais Du Rochin;;;;;;;fuel;;;;;convenience
25210772;0.7768262;47.4758609;9234;0.005523037014178873;;Relais BP De Meslay;;;;;;;fuel;;;;;convenience
257816658;0.7085959;47.4287137;20411;0.00017028752156236947;;Biocoop;;;;;;;;;;;;supermarket
357460703;0.6141421;47.3410797;26739;6.158449480069096e-05;;Pharmacie Lemaître;;;;;;;pharmacy;;;;;
357463177;0.6151889;47.3413734;8368;0.00021828240881926995;;;;;;;;;library;;;;;laundry
357464659;0.6140925;47.3418300;34546;0.000369346449827401;;Centre périscolaire;;;;;;;childcare;;;;primaire;
365352608;0.7070815;47.3615457;31811;0.00016017768259246487;;Les Gourmandises de Montjoyeux;;;;;;;;;;;;bakery
365352610;0.7070206;47.3617212;31811;6.130130503902598e-05;;Proxi;;;;;;;;;;;;convenience
365352612;0.7066532;47.3616450;31810;6.64567528563173e-05;;Le Montjoyeux;;;;;;;;;;;;newsagent
365352614;0.7067665;47.3616708;31810;0.0001810410174515568;;Viva la Vie;;;;;;;;;;;;hairdresser
365352621;0.7070592;47.3614931;31811;0.00019462522961391396;;Tours Montjoyeux;;;;;;;post_office;;;;;
420375487;0.5548621;47.3853076;11724;0.0001543545593736333;;La Maison Chalon;;;;;;;;;;;;bakery
448284244;0.6149836;47.3437069;6101;0.00013436565781392955;;Pharmacie des Prés;;;;;;;pharmacy;;;;;
448284253;0.6163335;47.3426216;18440;0.0001764780439617573;;Aux Douceurs de Ballan (Campaillette);;;;;;;;;;;;bakery
448284257;0.6131229;47.3405396;31068;5.7225256662256534e-05;;Le Cristo;;;;;;;restaurant;;;;;
448306161;0.6346958;47.3559187;39564;0.00033319743396500084;;Les Mignardières;;;;;;;restaurant;;;;;
448314707;0.6562260;47.3478769;34745;0.00010771304470673;;L'île aux pizzas;;;;;;;fast_food;;;;;
448352456;0.6137386;47.3413552;34547;0.00011720554594054861;;Boulangerie Nardeux;;;;;;;;;;;;bakery
452561396;0.6725331;47.3927968;41764;0.00017558935047461095;;Les Beaux gosses;;;;;;;restaurant;;;;;
457477894;0.6851880;47.3928276;6254;0.00017879197409719616;;Dominique Barbier;;;;;;;;;;;;jewelry
461205651;0.5456217;47.3479757;28488;0.0001606168110743102;;Brossard traiteur;;;;;;;;;;;;butcher
461205653;0.5459208;47.3479273;13759;0.0002105458144915367;;;;;;;;;;;;;;butcher
461205656;0.5462327;47.3480569;13759;0.00012759455317608217;;Spar;;;;;;;;;;;;convenience
461205662;0.5474868;47.3480936;31115;0.00013078501443143152;;;;;;;;;atm;;;;;
461205664;0.5479872;47.3482945;42543;0.00015981702037019032;;Superette Principale;;;;;;;;;;;;convenience
461205666;0.5479901;47.3481882;42543;0.00015187580452426488;;Pharmacie Larché-Noël;;;;;;;pharmacy;;;;;
469249612;0.6162195;47.3426872;23431;8.836707531415689e-05;;Xavier Flor;;;;;;;;;;;;florist
469249614;0.6168359;47.3426496;13955;0.00014562022524491555;;Intermède;;;;;;;;;;;;hairdresser
492500926;0.6876770;47.3938146;25717;0.00017783973121828956;;GrandOptical;;;;;;;;;;;;optician
492503194;0.6887088;47.3910122;24231;0.00023686000084673154;;La Mie Câline;;;;;;;fast_food;;;;;bakery
526884961;0.6919607;47.3890539;13941;0.000361367292376602;;Détours de Loire;;;;;;;;;;;;bicycle
526890943;0.6811939;47.3907721;23443;0.0002588424231055094;;Cycle Genty;;;;;;;;;;;;bicycle
530717204;0.6686434;47.4042064;4632;0.00027902318900068716;;Pharmacie Bertolino;;;;;;;pharmacy;;;;;
530717335;0.6679789;47.4098116;16896;0.0003481237998187468;;Pharmacie Victor Hugo;;;;;;;pharmacy;;;;;
530717962;0.6640562;47.4033567;32305;0.00014870675842644558;;Pizza Jub';;;;;;;fast_food;;;;;
535159208;0.6486896;47.4222550;31467;0.0005873923475827901;;École élémentaire Périgourd;;;;;;;school;;;;élémentaire;
549816351;0.6897843;47.3958463;14155;5.641427124343178e-05;;Crêperie Bilien;;;;;;Le Bistrot d'Odile Asiya;restaurant;;;;;
549888864;0.6914240;47.3961143;11258;0.0003431356874482743;;Le Turon;;;;;;;restaurant;;;;;
617496986;0.7080113;47.3690302;28177;8.144427542869584e-05;;Pharmacie des Trois Rivières;;;;;;;pharmacy;;;;;
622598316;0.7034699;47.3857106;7523;0.00011455348095680102;;Pharmacie Schnerr;;;;;;;pharmacy;;;;;
623914033;0.6797406;47.3921187;33677;6.617325743871544e-05;;Le Royaume d'Angkor;;;;;;;restaurant;;;;;
623981227;0.6795667;47.3922199;33677;0.00018523360926192147;;Guillaume Cornil;;;;;;;;;;;;hairdresser
624646456;0.6551953;47.3893534;9729;0.00022160852871621638;;;;;;;;;doctors;;;;;
624646504;0.6567100;47.3885122;39402;0.0002525391058829037;;;;;;;;;atm;;;;;
626708694;0.6905501;47.3867034;30014;0.00018255349900804844;;Domino's;;Domino's;;;;;fast_food;;;;;
626718693;0.6935399;47.3780929;42195;7.116010117968777e-05;;Le Chaperon Rouge;;;;;;;restaurant;;;;;
627298098;0.7065110;47.3653938;13872;0.00020631766768957867;;Police nationale;;;;;;;police;;;;;
627498440;0.6885618;47.3927828;13636;9.673985734956692e-05;;Fnac;;;;;;;;;;;;electronics
627499484;0.7078335;47.3690065;28177;0.00022238633051540948;;Carrefour Market;;;;;;;;;;;;supermarket
627500253;0.6806799;47.3670747;27549;0.00016848999970644883;;Maison des Sciences de l'Homme - CITERES;;;;;;;university;;;;;
631441551;0.7124784;47.3671233;642;0.00010321094903290541;;Pharmacie des Fontaines;;;;;;;pharmacy;;;;;
633559984;0.7200860;47.3897341;14268;0.00022399520084210879;;;;;;;;;atm;;;;;
635058973;0.6900107;47.3866793;31677;0.00026077534392782495;;La Chope;;;;;;;restaurant;;;;;
635059930;0.6932751;47.3962473;10211;8.309374224440081e-05;;Le Croque Bedaine;;;;;;;restaurant;;;;;
639631696;0.7067438;47.3655210;33861;0.00011203325399377644;;;;;;;;;townhall;;;;;
655923312;0.6974610;47.4918020;30820;0.00029105449661277527;;;;;;;;;;;;;;bakery
655923313;0.6978457;47.4905913;15222;0.0004570976482099896;;;;;;;;;;;;;;furniture
661121599;0.6558248;47.3894408;37725;0.00016542735565494088;;Pharmacie du Prieuré;;;;;;;pharmacy;;;;;
702481261;0.6974147;47.3554368;36434;0.00010761064073912161;;Crédit Agricole;;;;;;;atm;;;;;
726399048;0.7180899;47.3877296;4215;0.00010020124749518025;;L'Arcade;;;;;;;restaurant;;;;;
767038261;0.7347931;47.3633402;34408;0.00040014533609890535;;École maternelle Henri Adam;;;;;;;school;;;;maternelle;
767093684;0.7340971;47.3627396;34397;0.0002029390302525;;Presse - Le Saint Tab’;;;;;;;;;;;;newsagent
831320581;0.7022377;47.4226900;25680;0.00026733144221849044;;Star Burgers & Steack;;;;;;;fast_food;;;;;
831338412;0.7022939;47.4228995;25680;0.00022150081263957818;;Le Tatoué Toqué;;;;;;;restaurant;;;;;
834492972;0.6921094;47.3896183;13084;0.00040745543314565176;;;;;;;;;vending_machine;;;;;
843152828;0.6664967;47.3910000;26426;8.446182569798193e-05;;Banque Populaire;;;;;;;atm;;;;;
843170148;0.6668569;47.3910908;30402;7.424284477272891e-05;;Pharmacie Saint-Anne;;;;;;;pharmacy;;;;;
843186170;0.6667850;47.3910808;19117;9.029828347847584e-05;;Boulangerie Saint-Anne;;;;;;;;;;;;bakery
872665387;0.6811384;47.3920046;13431;0.00010682719690834624;;;;;;;;;atm;;;;;
889352646;0.7268521;47.3665752;41549;0.00020879513883354924;;Cusines Val de Loire;;;;;;;;;;;;furniture
899268461;0.6934427;47.3782756;42195;0.00026012006843049014;;Kebab express;;;;;;;fast_food;;;;;
899268464;0.6933809;47.3783920;15935;0.00033306991758481696;;37 Market;;;;;;;;;;;;convenience
903544793;0.6928709;47.3810990;38970;0.00030204837360750894;;Le Baccara;;;;;;;restaurant;;;;;
903560471;0.6916420;47.3826777;14788;0.00029043327977779543;;7J;;;;;;;;;;;;convenience
903572881;0.6907367;47.3848734;13408;0.00015078302291374396;;Les Gourmandises de Grammont;;;;;;;;;;;;bakery
903576116;0.6907144;47.3862790;29986;8.353107206606359e-05;;Pharmacie Normale;;;;;;;pharmacy;;;;;
903576418;0.6899256;47.3882720;7638;9.216208547836774e-05;;Pharmacie du Progrès;;;;;;;pharmacy;;;;;
903599027;0.6932401;47.3775336;42191;0.0005739568015118499;;Gendarmerie nationale;Caserne Général Raby;;;;Brigade motorisée de Tours;;police;;;;;
904534666;0.6939347;47.3906972;26517;0.00010859231096142637;;Pharmacie Vinci;;;;;;;pharmacy;;;;;
904534673;0.6937401;47.3914162;40318;0.00036940369516660844;;Le Chien Jaune;;;;;;;restaurant;;;;;
963238101;0.6881220;47.3891079;41328;7.820773618923077e-05;;Institut Alexandra;;;;;;;;;;;;beauty
963238340;0.6876762;47.3890916;20952;0.00010255476585924216;;La Rose des Sables;;;;;;;restaurant;;;;;
963238407;0.6878464;47.3890835;20952;0.00023388332561347482;;Maison B;;;;;;;fast_food;;;;;
963238471;0.6879109;47.3890891;41328;0.00027815254807377033;;Fujisushi;;;;;;;restaurant;;;;;
968852881;0.6866624;47.3893273;1146;0.0004043114146326697;;IPXTEL;;;;;;;vending_machine;;;;;
1032175039;0.6504650;47.4523638;26133;0.00023503482720551287;;;;;;;;;;;;;;convenience
1032175043;0.6579564;47.4475900;42400;0.00010980209469736752;;Pharmacie Boutarin Borgoltz;;;;;;;pharmacy;;;;;
1036956258;0.6780822;47.3843163;658;0.00011683869222142879;;Around the Bread;;;;;;;;;;;;bakery
1036956260;0.6783314;47.3844760;11821;0.00014438230500988356;;Le Du Bellay;;;;;;;bar;;;;;newsagent
1043781618;0.6924562;47.3895576;13084;0.00010439473166562489;;McDonald's;;;;;;;fast_food;;;;;
1083302265;0.6840978;47.3822000;11829;0.00045092992803987187;;École maternelle et Élémentaire Sainte-Jeanne d'Arc;;;;;;;school;;;;primaire;
1083302549;0.6822087;47.3815055;19373;0.00011148385533270002;;Calimero II;;;;;;;fast_food;;;;;
1098864805;0.6935749;47.3792654;35192;9.492944748716198e-05;;Pharmacie Chauvin;;;;;;;pharmacy;;;;;
1098868314;0.6893165;47.3883921;18455;0.00021654163572179067;;Mao;;;;;;;restaurant;;;;;
1098883207;0.6945343;47.3769015;42172;0.00010593969982972552;;Speed Burger;;;;;;;fast_food;;;;;
1098883210;0.6941662;47.3764435;9654;0.00012707859772688164;;Boulangerie Patisserie;;;;;;;;;;;;bakery
1098883213;0.6946851;47.3765297;35186;0.0003223842738084993;;Le Savon;;;;;;;;;;;;beauty
1110639299;0.7433843;47.3598085;8959;0.00012017591272884757;;Artstyl' Homme;;;;;;;;;;;;hairdresser
1110639316;0.7432328;47.3595710;8308;0.0001527613170945865;;Les Blés de Demain;;;;;;;;;;;;bakery
1110639402;0.7431768;47.3596935;37887;0.0002037168868798611;;Artstyl' Femme;;;;;;;;;;;;hairdresser
1110778364;0.7229173;47.3668860;29170;0.00042031222918298183;;La Fée aux Miettes;;;;;;Au four et au moulin;;;;;;bakery
1110778367;0.7269841;47.3667136;4024;0.00011781175663443115;;Boulanger Couillard;;;;;;;;;;;;bakery
1110778369;0.7282055;47.3674671;20907;0.0003799872892622533;;Épeautre et Cie;;;;;;;;;;;;bakery
1112824852;0.7199861;47.3551372;26499;0.0004660722368907199;;École maternelle des Grands Champs;;;;;;;school;;;;maternelle;
1112824877;0.7224677;47.3553058;22757;0.0004369346060906745;;Maison Nardeux;;;;;;;;;;;;bakery
1112825011;0.7244882;47.3552633;27355;0.00010662626318166978;;Pharmacie des Grands Champs;;;;;Pharmacie Le Fur;;pharmacy;;;;;
1112825034;0.7269464;47.3672859;4017;0.00021943112814771325;;Pharmacie du Petit Cher;;;;;Pharmacie PENEL;;pharmacy;;;;;
1112825098;0.7254791;47.3637060;27007;0.0005476461996571474;;École primaire Brûlon-Plantin;;;;;;;school;;;;primaire;
1112825149;0.7242260;47.3632800;7128;0.00039282949227306143;;École maternelle Léon Brûlon;;;;;;;school;;;;maternelle;
1112825227;0.7199921;47.3543838;22751;0.0006009657644180989;;École élémentaire des Grands Champs;;;;;;;school;;;;primaire;
1116489747;0.7223254;47.3552433;22757;0.00033184021757561775;;Papeterie des Grands Champs;;;;;;;;;;;;newsagent
1118972459;0.6784773;47.3929277;2834;0.000123965358063493;;;;;;;;;atm;;;;;
1119864596;0.6947682;47.3595794;37569;3.630674868407766e-05;;L'Hair du Temps;;;;;;;;;;;;hairdresser
1119864597;0.6948245;47.3593160;28075;7.044693038147735e-05;;La fabrique à couscous;;;;;;;restaurant;;;;;
1123098776;0.6871313;47.3901817;14948;8.067812590520789e-05;;;;;;;;;atm;;;;;
1123098795;0.6867908;47.3901311;14948;0.0002945029201889714;;;;;;;;;atm;;;;;
1125621701;0.6897383;47.3887544;14882;6.992975046577608e-05;;Crédit Agricole;;;;;;;bank;;;;;
1125621706;0.6888481;47.3889646;35227;0.00015557676561709773;;NewLita;;;;;;;restaurant;;;;;
1126987356;0.6909707;47.3843013;14814;0.00012842760606605915;;Fleurs Ô Naturel;;;;;;;;;;;;florist
1131573522;0.6932083;47.3801743;35196;0.00010508972357140156;;Caisse d'Épargne;;;;;;;bank;;;;;
1131573647;0.6931711;47.3802578;35196;0.00017196197254454695;;Klarity;;;;;;;doctors;;;;;
1140761677;0.6949307;47.3596458;13796;6.092766202815125e-05;;Tours Bergeonnerie;;;;;;;post_office;;;;;
1147976542;0.7027689;47.3886656;11974;0.00022365151463228343;;La Petite Marquise;;;;;;;;;;;;bakery
1147976553;0.7008712;47.3918339;26306;0.00012768226188901644;;Le Virginie;;;;;;;;;;;;newsagent
1149140057;0.6920657;47.3852569;29977;0.0005209788191458246;;Coop Nature;;;;;;;;;;;;supermarket
1152714441;0.6947872;47.3594336;28075;0.0001239316747248459;;Pharmacie Mery;;;;;;;pharmacy;;;;;
1153527449;0.6946513;47.3765925;35186;0.0002528819882840657;;Le Profil;;;;;;;;;;;;hairdresser
1153527577;0.6942504;47.3762606;9654;0.00029043009485901143;;Au Tours’nedos;;;;;;;;;;;;butcher
1153527641;0.6939580;47.3783160;15936;0.00016803657339951075;;My Tacos;;;;;;;fast_food;;;;;
1153528002;0.6942697;47.3762150;42160;0.000265329267139249;;Le Calumet;;;;;;;;;;;;newsagent
1153528029;0.6951570;47.3753780;35184;9.279924568413394e-05;;Image'in;;;;;;;;;;;;hairdresser
1153528043;0.6950257;47.3756946;42157;0.00023818417243451806;;Carrefour Express;;;;;;;;;;;;convenience
1153528063;0.6923796;47.3798960;14722;0.00013174160315076674;;Atelier du boucher;;;;;;;;;;;;butcher
1153528076;0.6922740;47.3798756;1110;0.00012546126892456615;;Chicken Street;;;;;;;fast_food;;;;;
1153528780;0.6940875;47.3780332;42190;8.370812385688795e-05;;La suite;;;;;;;restaurant;;;;;
1153528795;0.6925725;47.3799301;14723;0.00014386445009168235;;Le Byblos;;;;;;;fast_food;;;;;
1153564604;0.6925056;47.3805604;24257;8.718726971298487e-05;;Pizza Délice;;;;;;;fast_food;;;;;
1153564653;0.6917667;47.3823814;14788;9.743762106857937e-05;;Rive Gauche;;;;;;;;;;;;hairdresser
1153564716;0.6925838;47.3803488;14769;9.665096998996687e-05;;Banque Populaire;;;;;;;bank;;;;;
1153565487;0.6924829;47.3806092;24257;0.00011862567175737265;;Number One;;;;;;;fast_food;;;;;
1153565704;0.6921406;47.3814603;13420;0.00015742490272993052;;Grammont Motos;;;;;;;;;;;;motorcycle
1153565735;0.6919260;47.3819454;9648;0.00024104640632187038;;LCL;;;;;;;bank;;;;;
1153565855;0.6926652;47.3800161;40789;9.494319354166913e-05;;Maison Biehler;;;;;;;;;;;;bakery
1153697145;0.6899538;47.3868158;31677;0.00029436827274707263;;Crédit Mutuel;;;;;;;bank;;;;;
1153697188;0.6903846;47.3857565;13410;0.00028919690523625615;;Boucherie Michel Granger;;;;;;;;;;;;butcher
1153697327;0.6916791;47.3825875;14788;0.0001998467412814609;;Damart;;;;;;;;;;;;clothes
1153697354;0.6895150;47.3879254;33556;0.0001164263286355117;;Caisse d'Épargne;;;;;;;bank;;;;;
1153697470;0.6907122;47.3849570;13408;0.00022153792000236764;;Pharmacie Gruget;;;;;;;pharmacy;;;;;
1153697490;0.6901642;47.3863191;30064;0.0002184797702341347;;Ikxis Family;;;;;;;;;;;;hairdresser
1153697497;0.6898707;47.3870366;31677;0.0004501229720875196;;Paul Meunier;;;;;;;;;;;;bakery
1153697578;0.6902630;47.3860783;30064;9.796555516727496e-05;;Pizz à Tony;;;;;;;fast_food;;;;;
1153697606;0.6901399;47.3863726;30064;0.00027462711082857445;;Bakery & Co;Bakery and co;;;;;;;;;;;bakery
1153841454;0.6813984;47.3944946;29781;0.00010434505258890832;;Chez Madie;;;;;;;restaurant;;;;;
1153841706;0.6882050;47.3913054;24229;0.00024670835008313506;;LCL;;;;;;;bank;;;;;
1153841724;0.6856809;47.3950978;5697;0.00015589974342453431;;Pizza Di Napoli;;;;;;Brooklyn Pizza;fast_food;;;;;
1153841733;0.6867217;47.3949784;39241;0.0002514877730620802;;La Boîte à Livres;;;;;;;;;;;;books
1153842126;0.6876807;47.3935655;20035;0.0001519434434256305;;Honoré;;;;;;;;;;;;bakery
1153842206;0.6870004;47.3952164;31936;6.811416886619093e-05;;Pharmacie de Touraine;;;;;;;pharmacy;;;;;
1153843508;0.6884299;47.3908289;24229;0.00032686127026149066;;Galeries Lafayette;;;;;;;;;;;;department_store
1153843513;0.6884076;47.3916047;20600;0.0004493664985337948;;Brioche Dorée;;;;;;;;;;;;bakery
1153844085;0.6879957;47.3920007;24235;9.302069662200815e-05;;Monoprix;;;;;;;;;;;;supermarket
1153844092;0.6885316;47.3913620;24231;0.00019938149362311875;;BNP Paribas;;;;;;;bank;;;;;
1153844146;0.6868088;47.3947521;13405;0.00019197067484334946;;Banque Populaire;;;;;;;bank;;;;;
1158304734;0.6924161;47.3821381;36067;0.00020708090206564866;;Crédit Agricole;;;;;;;bank;;;;;
1158304756;0.6957915;47.3887291;27229;0.00015733709035417083;;Live & Life;;;;;;;restaurant;;;;;
1158304839;0.6974715;47.3879986;10994;0.0003677926861713733;;Centre des Finances Publiques;;;;;;;;;;government;;
1158304964;0.6903089;47.3873369;29991;0.00013301458566527695;;Pharmacie de l'Avenue;;;;;;;pharmacy;;;;;
1158305086;0.6973503;47.3883618;23198;0.0005630651916081911;;Centre Administratif;;;;;;;;;;government;;
1158305128;0.6946644;47.3899869;6702;0.00015789290673992178;;Moom Thai;;;;;;;restaurant;;;;;
1158305216;0.6906403;47.3887483;35151;0.0006978832638768225;;Bistro Rossini;;;;;;;restaurant;;;;;
1158305265;0.6968080;47.3887031;10997;0.0004325169245254678;;CPAM d'Indre-et-Loire;Sécurité sociale;;;;Caisse primaire d'assurance maladie (CPAM) d'Indre-et-Loire - siège de Tours;;;;;government;;
1158305276;0.6904277;47.3870352;30014;0.00022162477298105733;;Au Martin Bleu;;;;;;;restaurant;;;;;
1158305336;0.6945417;47.3901000;31488;0.00020185351123934949;;Izakaya;;;;;;;restaurant;;;;;
1158305377;0.6921252;47.3891147;35153;0.0005145971725528707;;Marie-Pi’Hair;;;;;;;;;;;;hairdresser
1158305449;0.6954920;47.3893658;7672;7.105884884897986e-05;;Le Vietnam;;;;;;;restaurant;;;;;
1158305494;0.6903717;47.3871551;29991;0.0001474135678971604;;La Scaleta;;;;;;;restaurant;;;;;
1158305504;0.6916918;47.3896147;2;0.000600008708268544;;O'Tacos;;;;;;;fast_food;;;;;
1158305722;0.6903030;47.3884239;35146;0.0002799579968489789;;Les Astuces de Laurent;;;;;;;;;;;;hairdresser
1158305902;0.6920650;47.3895931;13084;0.0004538625452712525;;Pharmacie de la Gare;;;;;;;pharmacy;;;;;
1158305940;0.6907019;47.3863446;29986;0.0001371723368643131;;Le Bistrio;;;;;;;restaurant;;;;;
1193900108;0.6900851;47.3958045;10205;4.553789630749488e-05;;Carrefour Express;;;;;;;;;;;;convenience
1207212858;0.6977115;47.3837361;32436;0.00013846277478114007;;Police nationale;;;;;Poste de police nationale de Tours Est-Sanitas;;police;;;;;
1210839886;0.6934816;47.3897197;7895;0.00011981986479610076;;;;;;;;;atm;;;;;
1230774659;0.6863182;47.3727161;24973;0.00043445208021244735;;École maternelle Georges Duhamel;;;;;;;school;;;;maternelle;
1230774711;0.6858062;47.3723743;34599;0.0006379549357127807;;École élémentaire André Gide;;;;;;;school;;;;primaire;
1231488003;0.6934742;47.3733845;17527;0.00025290751273873317;;Bibliothèque municipale des Rives du Cher;;;;;;;library;;;;;
1231488425;0.6918255;47.3729975;19550;0.000257112348981951;;École Saint-Ursule;;;;;;;school;;;;primaire;
1243583668;0.6682345;47.3902092;22525;0.0005107142155850961;;École maternelle Paul Racault;;;;;;;school;;;;maternelle;
1247296649;0.7343669;47.3719846;3220;0.002801542550093459;;Parc du Lac de la Peupleraie;;;;;;;;;park;;;
1279049591;0.6394172;47.4359364;11179;0.00042101350334520235;;;;;;;;;atm;;;;;
1305825408;0.6939096;47.4027706;32736;0.00015222237023552882;;Aux délices de Paul Bert;;;;;;;;;;;;bakery
1324652200;0.6968750;47.3834625;24184;0.0002074432211490757;;Pharmacie du Sanitas;;;;;;;pharmacy;;;;;
1325344565;0.6936252;47.3794884;1089;0.00019504155967569768;;La Brasserie des Terroirs;;;;;;;restaurant;;;;;
1379423599;0.6973625;47.3833292;35972;0.00023371078280707308;;Honoré le Boulanger;;;;;;;;;;;;bakery
1427439016;0.7284405;47.3675064;20907;0.00014990773829192858;;Au 19;;;;;;;restaurant;;;;;
1427440005;0.7275934;47.3690321;32651;0.00017524314537199212;;Le Clapotis;;;;;;;restaurant;;;;;
1446022210;0.6828572;47.4216448;22412;0.00028429416103865185;;Marché du Beffroi;;;;;;;marketplace;;;;;
1455344390;0.6684559;47.3909006;7361;0.00047821168952817114;;Collège Alphonse de Lamartine;;;;;;;school;;;;collège;
1468432746;0.6919358;47.3961748;11259;0.00013759378619662563;;Le Tagine d'Argent;;;;;;;restaurant;;;;;
1472588951;0.6974198;47.3940189;30427;0.0007464251134560287;;Conservatoire à Rayonnement Régional Francis Poulenc;;CRR;;;;;college;;;;;
1472588952;0.6972141;47.3929533;6432;0.0004977237888656195;;École primaire Francis Poulenc Musique;;;;;;;school;;;;élémentaire;
1479391668;0.6876257;47.3521063;27856;0.0006861685871556741;;Centre Médical des Quatres Bornes;;;;;;;doctors;;;;;
1479391670;0.6872092;47.3519896;26996;0.0003577262640622513;;Le Chinon;;;;;;;restaurant;;;;;
1479392617;0.6936726;47.3539407;3543;0.00015552343874200374;;L'Hair de Joué;;;;;;;;;;;;hairdresser
1479393076;0.6917853;47.3532564;27757;0.00018084603949167596;;Patàpain;;;;;;;fast_food;;;;;bakery
1479393632;0.6893118;47.3525714;33384;0.00045298795789660396;;Le Noblé Joué;;;;;;;restaurant;;;;;
1484206025;0.7071925;47.3686881;25417;2.351361307589889e-05;;Caisse d'Épargne;;;;;;;bank;;;;;
1484206026;0.7072136;47.3685878;25417;7.986144251351871e-05;;Cook Plaza;;;;;;;fast_food;;;;;
1484206027;0.7072432;47.3684703;25417;0.00020100930327112668;;Crédit Agricole;;;;;;;bank;;;;;
1484206029;0.7080894;47.3688151;25420;4.225221887726675e-05;;;;;;;;;police;;;;;
1501406166;0.6681090;47.3795482;38206;8.267653838900411e-05;;La bouffarde;;;;;;;bar;;;;;newsagent
1526167586;0.6684820;47.4041680;29175;0.00019593111034311842;;Aux Délices de Saint-Cyr;;;;;;;;;;;;bakery
1531222519;0.6999386;47.3952805;11047;0.00012706128442310395;;Pharmacie Mirabeau;;;;;;;pharmacy;;;;;
1622292692;0.6788370;47.3492602;24772;0.00018160586444056735;;Carrefour Express;;;;;;;;;;;;convenience
1622292821;0.6789701;47.3491533;4082;0.00020350710061102452;;Tabac - Presse;;;;;;;;;;;;newsagent
1622292870;0.6791011;47.3491672;4082;0.00025469992147350806;;Centre commercial Vallée Violette;;;;;;;;;;;;butcher
1622292881;0.6792269;47.3491806;4082;0.0003465413250950381;;Tendances Coiffure;;;;;;;;;;;;hairdresser
1622292952;0.6794888;47.3499212;40571;8.794543762512476e-05;;Pharmacie de la Vallée Violette;;;;;;;pharmacy;;;;;
1622292967;0.6795704;47.3494158;35073;8.90505474439417e-05;;Boulangerie Nardeux;;;;;;;;;;;;bakery
1643325755;0.6798681;47.3493310;35070;0.0002465059228523508;;Kiné;;;;;;;doctors;;;;;
1643325756;0.6798312;47.3494592;7106;0.0001221664847648401;;Podologue Pédicure;;;;;;;doctors;;;;;
1643325757;0.6819835;47.3504929;7162;0.00018553007842196732;;Salle Sully;;;;;;;community_centre;;;;;
1643325760;0.6794301;47.3492021;33439;0.0002530768262813864;;Caisse d'Épargne;;;;;;;bank;;;;;
1643325762;0.6798476;47.3494016;7106;0.00017702974326092523;;;;;;;;;dentist;;;;;
1696320871;0.6798066;47.3492442;7106;0.0003380917774769859;;;;;;;;;vending_machine;;;;;
1699984020;0.6663755;47.3906108;16035;8.571767612550787e-05;;Crédit Mutuel;;;;;;;atm;;;;;
1699984040;0.6671778;47.3912271;15760;0.00010961008165754752;;Caisse d'Épargne;;;;;;;bank;;;;;
1702790866;0.7269855;47.3667664;4024;7.606924477089885e-05;;La Petite Épicerie;;;;;;;;;;;;convenience
1702790870;0.7270002;47.3669472;4024;0.00014709541120905785;;Crédit Mutuel;;;;;;;bank;;;;;
1702790873;0.7268500;47.3669989;4017;9.511182891715295e-05;;Crédit Agricole;;;;;;;bank;;;;;
1702905026;0.6631394;47.3511685;34896;4.1823438402728416e-05;;Caisse d'Épargne;;;;;;;bank;;;;;
1702905103;0.6630966;47.3511709;34896;3.873706235351775e-05;;Caisse d'Épargne;;;;;;;atm;;;;;
1702943697;0.7268415;47.3671109;4017;8.426986412794614e-05;;L'Addiction;;;;;;;restaurant;;;;;
1702943723;0.7269998;47.3668874;4024;9.857230848453733e-05;;Sébastien Dubourg;;;;;;;;;;;;butcher
1703221890;0.6671076;47.3907404;30401;0.00013516556514235194;;Crédit Agricole;;;;;;;bank;;;;;
1704726489;0.7263656;47.3681145;22173;0.00036160710722716243;;L'ile aux pizzas;;;;;;;restaurant;;;;;
1711321765;0.6671452;47.3991523;15617;0.00028744783874513826;;Police Municipale;;;;;;;police;;;;;
1711321781;0.6692097;47.4098760;36037;0.00024779913236352654;;Saint-Cyr-sur-Loire;;;;;;;post_office;;;;;
1720867109;0.6556000;47.3954741;12057;0.00020722789387372652;;Ère de pain;;;;;;;;;;;;bakery
1720867110;0.6561136;47.3959189;35736;0.0001332974118290192;;Esprit d'coup;;;;;;;;;;;;hairdresser
1728853360;0.6944085;47.3861991;4650;0.00014111342955205398;;Nanza;;;;;;;;;;;;clothes
1728853361;0.6944753;47.3861322;4650;9.371365962583783e-05;;Hokane Ramen;;;;;;;restaurant;;;;;
1728853362;0.6949765;47.3863020;14362;0.00028724618361495994;;Tours Gare;;;;;;;post_office;;;;;
1728865669;0.6560472;47.3958734;35736;8.83672450651481e-05;;Pharmacie des Maisons Blanches;;;;;;;pharmacy;;;;;
1739148153;0.7035195;47.4367630;29151;0.00021662986867055216;;La Milletière;;;;;;;post_office;;;;;
1739148154;0.6566833;47.3886166;39402;0.000257915199241924;;La Riche;;;;;;;post_office;;;;;
1739148160;0.6830336;47.4227397;40261;0.00012859339018905528;;Tours Chateaubriand;;;;;;;post_office;;;;;
1739148161;0.7081106;47.3687434;25420;5.1196288926303376e-05;;Tours Fontaines;;;;;;;post_office;;;;;
1739148162;0.6937311;47.3788424;26121;0.000325252302067421;;Tours Grammont;;;;;;;post_office;;;;;
1739148163;0.6771567;47.3833784;30564;0.00020201596471596856;;Tours Rabelais;;;;;;;post_office;;;;;
1739148165;0.7110617;47.3754659;5566;5.818333094853039e-05;;Tours Rochepinard;;;;;;;post_office;;;;;
1739627914;0.6166306;47.3425697;28903;0.00019112242150446653;;Ballan Mire;;;;;;;post_office;;;;;
1739627948;0.7011095;47.4718302;13188;0.00017368580828877996;;Chanceaux Sur Choisille;;;;;;;post_office;;;;;
1739628161;0.7454607;47.4410703;29356;0.000235620245313078;;Parcay Meslay;;;;;;;post_office;;;;;
1741894103;0.7103538;47.3670090;42638;0.00012233764751692854;;École primaire Arthur Rimbaud;;;;;;;school;;;;primaire;
1742604478;0.6916409;47.4022464;11250;0.0003362341594778919;;École élémentaire Paul Bert;;;;;;;school;;;;élémentaire;
1742622244;0.6806055;47.4095132;6385;0.00017968194121897494;;École élémentaire Victor Hugo;;;;;;;school;;;;primaire;
1742626466;0.6838342;47.4135874;34904;0.0005111851328054553;;École primaire Christ-Roi Notre-Dame des Ailes;;;;;;;school;;;;primaire;
1745296391;0.6991713;47.3890478;27416;0.0003879178392399021;;Centre de Promotion de la Coiffure;;;;;;;school;;;;secondaire;
1745296396;0.6823997;47.3763170;15484;0.0003940790022289753;;Collège Jules Ferry;;;;;;;school;;;;collège;
1745296405;0.6836403;47.3764197;15486;0.0002186074335398963;;École maternelle Jules Ferry;;;;;;;school;;;;maternelle;
1745296409;0.7107726;47.3791898;22845;0.0001890774708952924;;École maternelle Raspail;;;;;;;school;;;;maternelle;
1745296414;0.7105660;47.3794978;22850;0.0002304472607827745;;École primaire Raspail;;;;;;;school;;;;primaire;
1745296415;0.7013917;47.3894459;23215;0.00029493012731670183;;École primaire privée Maintenon;;;;;;;school;;;;primaire;
1745296428;0.6832900;47.3760807;15486;0.0005859634288874606;;École élémentaire Stéphane Pitard;;;;;;;school;;;;élémentaire;
1746720409;0.6987837;47.3876225;23192;0.0005246976367394615;;Tours Champ Girault;;;;;;;post_office;;;;;
1749960651;0.6852870;47.3922730;37674;0.00015832387691039394;;Carrefour City;;;;;;;;;;;;supermarket
1750046190;0.6851598;47.3924240;37674;8.897825576665291e-05;;Rasoir Service;;;;;;Clinique du Rasoir;;;;;;electronics
1750046232;0.6836712;47.3921118;12227;0.0002117113364945899;;Lycée professionnel Saint-Martin;Institution Saint-Martin;;;;;;school;;;;lycée;
1751037849;0.6928276;47.3861510;5285;0.00011183438648015777;;École maternelle Grécourt;;;;;;;school;;;;maternelle;
1756640496;0.6957504;47.4106639;28470;0.0001377973149170757;;La Petite plume;;;;;;;restaurant;;;;;
1756640519;0.6958529;47.4106283;13954;0.0007808664546515692;;Les Couleurs du Soleil;;;;;;;;;;;;hairdresser
1756640790;0.6954587;47.4107330;28470;0.00028420562978160105;;Pharmacie Des Tourettes;;;;;;;pharmacy;;;;;
1757615603;0.6541592;47.3444048;26565;0.00023378490114033296;;École primaire Blotterie;;;;;;;school;;;;primaire;
1758589920;0.6946703;47.4110874;42724;0.00012946860623455535;;Salle des Fêtes des Tourettes;;;;;Salle des Tourettes;;community_centre;;;;;
1764054816;0.6975261;47.3835911;35972;0.00010193223238900085;;Bibliothèque Paul Carlat;;;;;;;library;;;;;
1764054817;0.6975097;47.3835275;35972;8.178276101952992e-05;;Centre de Vie du Sanitas;;;;;;;community_centre;;;;;
1768773620;0.6837320;47.3921186;37728;0.00018573952191366664;;Collège Saint-Martin;Institution Saint-Martin;;;;;;school;;;;collège;
1775862802;0.6936594;47.3957201;22504;7.578601454068797e-05;;La Grange des Celtes;;;;;;;restaurant;;;;;
1776987014;0.6840424;47.3656157;2986;0.00025458399399719224;;Université de Tours Institut d'administration des entreprises;;IAE;;;;;college;;;;;
1778355004;0.6767803;47.3796286;15667;0.0002578697539464438;;L'Esprit Cycles;;;;;;;;;;;;bicycle
1779031063;0.6783628;47.3931564;19309;0.00012653762286291074;;Boulangerie de la victoire;Fabiola et Damien Marville;;;;;;;;;;;bakery
1789756781;0.6332205;47.4352454;32336;0.00024238921180789395;;Institut Départemental de l'Enfance et de la Famille;;;;;;;social_facility;;;;;
1793354872;0.6916383;47.3930389;27439;0.00033736034147499925;;Conseil départemental d'Indre-et-Loire;;;;;;;;;;government;;
1798150460;0.6723079;47.3927226;41764;0.00010065435907463067;;Karine et Teddy;;;;;;;;;;;;bakery
1799107414;0.6665068;47.3595793;10729;0.0005728578968673943;;Clos Saint-Victor;;;;;;;hospital;;;;;
1799193417;0.7366811;47.3972510;13762;0.0006056676481327286;;CFA BTP Aforproba d'Indre-et-Loire;;;;;;;college;;;;;
1799193437;0.7294352;47.3897713;19785;0.0004491789064504697;;Collège Stalingrad;;;;;;;school;;;;collège;
1799193442;0.7416084;47.3947562;16344;0.0003433732225981639;;Lycée professionnel Martin Nadaud;;;;;;;school;;;;lycée;
1799193446;0.7231026;47.3946314;39381;0.00033057714682133463;;École maternelle Henri Wallon;;;;;;;school;;;;maternelle;
1799193455;0.7309902;47.3897619;9623;0.0002544811387878221;;École maternelle Stalingrad;;;;;;;school;;;;maternelle;
1799193459;0.7235063;47.3947779;17611;0.0002019836131965892;;École primaire Henri Wallon;;;;;;;school;;;;primaire;
1799193463;0.7359383;47.3947105;23345;0.000376959056130521;;École primaire Sablons-Semard;;;;;;;school;;;;primaire;
1799193467;0.7307329;47.3894092;9623;0.000691004522414409;;École primaire Viala-Stalingrad;;;;;;;school;;;;primaire;
1799228690;0.6897349;47.4278814;5816;0.0007516126928151924;;Lycée professionnel François Clouet;;;;;;;school;;;;lycée;
1799228692;0.6747130;47.4209296;14667;0.00043805361543994254;;Lycée professionnel Gustave Eiffel;;;;;;;school;;;;lycée;
1799228704;0.6802740;47.4356780;17759;0.0004476742118969338;;École maternelle Paul Fort;;;;;;;school;;;;maternelle;
1799228713;0.6796472;47.4355864;27465;0.00025294665445362447;;École primaire Paul Fort;;;;;;;school;;;;primaire;
1799228735;0.6733619;47.4026551;36004;0.0002884054957866233;;École primaire privée Saint-Joseph;;;;;;;school;;;;primaire;
1799228740;0.7441041;47.4414932;12038;0.0003891031868229174;;École élémentaire Les Néfliers;;;;;;;school;;;;élémentaire;
1827517934;0.6914583;47.3902810;2;0.00042187240962306794;;Printemps;;;;;;;;;;;;department_store
1874596757;0.7157256;47.3433818;30013;0.00011776077445037411;;Société Générale;;;;;;;atm;;;;;
1874599432;0.7150775;47.3426022;9450;0.00014965363343345375;;La Poste;;;;;;;post_office;;;;;
1874599837;0.7151338;47.3425913;9450;0.000196366112146915;;La Banque Postale;;;;;;;atm;;;;;
1876043717;0.7136084;47.3388263;7373;2.5594726019492883e-05;;Marché Place de la Mairie;;;;;;;marketplace;;;;;
1876046625;0.6989669;47.3394980;3401;0.0007102736514889018;;Auchan;;;;;;;;;;;;supermarket
1876047197;0.6993883;47.3376472;21097;0.00021545878956290534;;;;;;;;;atm;;;;;
1930488186;0.6735839;47.4073844;11155;0.0003340033682464178;;Marché Mailloux;;;;;;;marketplace;;;;;
1935596398;0.6800694;47.3495184;35070;8.75384486958785e-05;;;;;;;;;atm;;;;;
1956671905;0.6913147;47.4181561;1539;0.0003638622953809775;;Commissariat de Secteur de Tours Nord / Saint-Cyr-sur-Loire;;;;;;;police;;;;;
1983199562;0.6790340;47.3488462;4082;0.00012262267327281333;;;;;;;;;vending_machine;;;;;
2013580012;0.5966176;47.4023542;24686;0.000275218095335201;;Pharmacie de la Poste;;;;;;;pharmacy;;;;;
2013580014;0.5967356;47.4034107;8585;0.0003058970415037147;;;;;;;;;;;;;;bakery
2013580018;0.5961670;47.4027536;24850;0.0002678384774431115;;Carrefour Express;;;;;;;;;;;;convenience
2013580020;0.5961080;47.4033672;32025;0.0002868636087065192;;;;;;;;;;;;;;florist
2013585275;0.6019981;47.4050555;39216;0.00021683230848267433;;Pharmacie Halabi;;;;;;;pharmacy;;;;;
2023880133;0.6950164;47.4108006;39698;0.00021811797266729004;;Plaisir du Goût;;;;;;;;;;;;bakery
2071445554;0.6964129;47.3795625;15648;0.0004792318123831368;;Marché Saint-Paul;;;;;;;marketplace;;;;;
2077516802;0.6840851;47.3932180;12182;0.00018170924577704968;;MicroGate;;;;;;;;;;;;computer
2084661760;0.5102933;47.3092346;13065;0.002319189188056017;;Jour de Marché;;;;;;;restaurant;;;;;
2089444718;0.7528648;47.3679724;3256;0.0010988599410259449;;Domaine de Cangé;;;;;;;;;park;;;
2089444719;0.7535496;47.3678135;3297;0.0004416070764828163;;Médiathèque Michel Serres;;;;;;;library;;;;;
2094170031;0.6994084;47.4278938;13994;0.0004195932911788888;;Auchan;;;;;;;;;;;;supermarket
2130442871;0.6768182;47.4251826;40493;0.00020083249239197817;;Salle Châteaubriand;;;;;;;community_centre;;;;;
2133453201;0.7070891;47.3614417;41315;0.00016654879164971419;;La Banque Postale;;;;;;;atm;;;;;
2198825068;0.6951551;47.4107817;39698;0.0001540018506390495;;Toilettage Canin;;;;;;;;;;;;pet
2198880746;0.6942316;47.4165354;7791;0.0001697050676907096;;Relook Moi;;;;;;;;;;;;hairdresser
2199317627;0.6630780;47.3488916;11077;6.026375361691202e-05;;Pizza de Luxe;;;;;;;restaurant;;;;;
2199321815;0.6631421;47.3490919;11078;0.0002200899134428801;;l'Aparté;;;;;;;restaurant;;;;;
2199326229;0.6634819;47.3491583;34024;5.360083954691073e-05;;Mille et une pizzas;;;;;;;;;;;;bakery
2199328072;0.6630967;47.3498898;25030;0.00028539253669493587;;Lagarde Optique;;;;;;;;;;;;optician
2199335701;0.6631226;47.3493508;3629;0.00015482383537001291;;Petit commerce;;;;;;;;;;;;convenience
2199336062;0.6633566;47.3508704;43542;0.000211519384454125;;Casino Shop;;;;;;;;;;;;convenience
2199341153;0.6632730;47.3567806;275;6.79241488694979e-05;;Pharmacie de l'Épend;;;;;;;pharmacy;;;;;
2199343402;0.6590990;47.3483847;271;0.00019163929659897367;;Domino's;;Domino's;;;;;fast_food;;;;;
2199343954;0.6636203;47.3566834;276;7.332298412019742e-05;;Indigo Coiffure;;;;;;;;;;;;hairdresser
2199344164;0.6638655;47.3566000;281;0.00012304665781812682;;Carrefour Express;;;;;;;;;;;;convenience
2199373590;0.6600384;47.3486207;270;0.00016299254584152678;;Pharmacie mutualiste;;;;;;;pharmacy;;;;;
2199374748;0.6592351;47.3480970;36099;0.00023282199208832403;;Boulangerie Nardeux;;;;;;;;;;;;bakery
2199374875;0.6594141;47.3481105;19019;0.00033656871512664305;;Fleurs ô naturel;;;;;;;;;;;;florist
2199374958;0.6595730;47.3496424;19001;0.00046094091812331236;;Cabinet Médical Laënnec;;;;;;;doctors;;;;;
2199375303;0.6966079;47.3564580;39488;7.720893730605811e-05;;Cabinet médical;;;;;;;doctors;;;;;
2216836792;0.5543162;47.3833750;9420;0.0002869033460936021;;Crédit Agricole;;;;;;;bank;;;;;
2250317475;0.6970879;47.3834994;35975;0.000339881626452483;;Coiff&Co;;;;;;;;;;;;hairdresser
2251117551;0.6819486;47.3929268;32361;0.00017278995920084637;;Nash;;;;;;;;;;;;clothes
2252088935;0.6631012;47.3489817;11078;0.00013660256220432847;;Épicerie 14 Juillet;;;;;;;;;;;;convenience
2252092206;0.6634173;47.3492328;12565;0.00032077733710238464;;Atmosphère;;;;;;;restaurant;;;;;
2252094805;0.6630844;47.3492551;3629;0.0002578618428522089;;Histoire de tartes;;;;;;;;;;;;bakery
2252445335;0.6567150;47.3544223;4805;0.00044143425331342323;;Maison des Associations;;;;;;;community_centre;;;;;
2283013862;0.7077190;47.4296280;7701;0.000429470953614691;;Gaspard;;;;;;;restaurant;;;;;
2283068070;0.7075805;47.4297821;7701;0.00024758489453118667;;By Loft;;;;;;;;;;;;furniture
2283081490;0.7044090;47.4253960;17139;0.00011344928382354964;;Le Poggio;;;;;;;restaurant;;;;;
2286133841;0.6809142;47.3641094;35416;0.00031580254907226087;;Pôle Emploi;;;;;;;;;;government;;
2291553587;0.7081964;47.4291563;7676;0.00020818703129954786;;L'ApparT;;;;;;;;;;;;furniture
2291909431;0.6846832;47.4117337;19596;0.00014403169790296277;;Pharmacie Maginot;;;;;;;pharmacy;;;;;
2291948142;0.7444512;47.4420292;38364;0.00039657294411081636;;École Maternelle Les Néfliers;;;;;;;school;;;;maternelle;
2291976071;0.7460419;47.4415775;29701;0.0002844443355014218;;Salle Saint-Pierre;;;;;;;community_centre;;;;;
2294135336;0.6887736;47.4131439;37448;7.643853740187123e-05;;Inspection de l'Éducation Nationale;;;;;;;;;;government;;
2294135338;0.6860405;47.4128739;18147;0.00017040217134829045;;Laboratoire de Biologie Médicale;;;;;;;doctors;;;;;
2294135340;0.6845461;47.4116040;34072;0.00012400423379894306;;Carrefour Express;;;;;;;;;;;;convenience
2294135368;0.6816024;47.4085921;14102;0.00011015770513204455;;Ronde des Pains;;;;;;;;;;;;bakery
2294135371;0.6846037;47.4117342;28480;0.00016819161691456326;;;;;;;;;vending_machine;;;;;
2301633520;0.7159132;47.3798109;37216;0.00020497124188434662;;Burger King;;;;;;;fast_food;;;;;
2308871884;0.6792233;47.4236380;3611;0.000706538845357063;;École Primaire Jules Verne;;;;;;;school;;;;primaire;
2311545888;0.6958937;47.3971203;15684;0.00010730377439808109;;Clinique Vétérinaire des Quais de la Loire;;;;;;;veterinary;;;;;
2344227194;0.6886554;47.3933098;5923;0.00013537152580861831;;Biocoop;;;;;;;;;;;;supermarket
2352743709;0.6989112;47.3836877;4422;0.00014325658797596902;;Secours Populaire Français;;;;;;;social_facility;;;;;
2367533974;0.6751906;47.3494388;990;0.0002776010446643868;;Espace Léo Lagrange;;;;;;;community_centre;;;;;
2367668334;0.7025119;47.4267444;7621;0.00037566624815130363;;Cultura;;;;;;;;;;;;books
2367668335;0.6985449;47.4397607;32552;0.00030829422635076574;;Intermarché;;;;;;;;;;;;supermarket
2367668336;0.7031315;47.4272960;7553;0.00019645177525565448;;Aubert;;;;;;;;;;;;clothes
2367668343;0.7029116;47.4270710;7530;0.0002654266000224071;;Gémo;;;;;;;;;;;;clothes
2383771513;0.7033976;47.3867948;11977;0.00010949136952134884;;Boucherie Dufresne;;;;;;;;;;;;butcher
2418048661;0.6807232;47.3939045;12244;0.00010732026835847286;;Koh-I-Noor;;;;;;;fast_food;;;;;
2418049672;0.6807232;47.3938391;12244;0.00016444938431019404;;Cesar Sandwichs;;;;;;;fast_food;;;;;
2420233934;0.6733355;47.3938742;27447;0.00013865558048446817;;AFPP;Association de Formation Professionnelle Polytechnique de Touraine;;;;;;college;;;;;
2425628886;0.5114475;47.3395014;28174;0.00013804872328176767;;La Poste;;;;;;;post_office;;;;;
2460527516;0.6785625;47.3658016;37230;4.4279227633121466e-05;;;;;;;;;atm;;;;;
2466547916;0.7068085;47.3771052;8943;0.0001110316171140647;;Beaujardin Optique;;;;;;;;;;;;optician
2497630239;0.7191339;47.3889218;38234;0.0003986716067153958;;Un nouveau regard;;;;;;;;;;;;optician
2509570055;0.6898073;47.3893802;14896;0.000320673603528578;;Paul Meunier;;;;;;La Grignotine;;;;;;bakery
2509570059;0.6898270;47.3892113;14896;0.00029370900565009055;;H&M;;;;;;;;;;;;clothes
2509570064;0.6899547;47.3894410;14896;0.0004788410174577868;;Carpy;;;;;;;;;;;;hairdresser
2509570068;0.6898778;47.3894073;14896;0.0003952213810025419;;Chez Duong;;;;;;;fast_food;;;;;
2509570073;0.6899712;47.3892671;14896;0.00044115604948814264;;Bershka;;;;;;;;;;;;clothes
2509570077;0.6899217;47.3894205;14896;0.00044007064205738196;;Uflora;;;;;;;;;;;;florist
2517154766;0.7174971;47.3657096;34668;0.0001610589953967366;;La fournée de Marie;;;;;;;;;;;;bakery
2560256022;0.6738683;47.3904846;43656;0.0001499341522109191;;Proxi Super;Supermarché Score;;;;;;;;;;;supermarket
2569868421;0.7145917;47.3388009;35373;0.00022265475517023163;;AMIC Association Informatique;Association Multimédia et Informatique Chambray-lès-Tours;;;;;;social_centre;;;ngo;;
2574514039;0.7228673;47.3882618;24912;0.00013810014481999708;;Pizza Vio;;;;;;;restaurant;;;;;
2576280713;0.7204791;47.4062425;16659;0.0006610084190099999;;Maison Familiale de Rougemont;MFR Rougemont Tours;;;;;;school;;;educational_institution;MFR;
2577467444;0.7145486;47.3386921;35373;0.00029026844471851797;;Chambray Accueil;;;;;;;social_centre;;;;;
2579383381;0.6721959;47.3928471;41764;0.00016631370959600695;;Pharmacie Lamartine;;;;;;;pharmacy;;;;;
2580105027;0.7141514;47.3387417;19059;5.227934582708073e-05;;Pizza Boutic;;;;;;;restaurant;;;;;
2581734011;0.7379027;47.3423392;21236;3.5361702447709425e-05;;Les coiffures de Sophie;;;;;;;;;;;;hairdresser
2601216365;0.6763022;47.3873646;31177;0.0001403467847869385;;Crédit Agricole;;;;;;;bank;;;;;
2601216381;0.6763301;47.3873680;31177;0.00011346034549661321;;;;;;;;;atm;;;;;
2635321963;0.6988373;47.3872936;2935;0.00023666003042210367;;Salle Champ Girault;;;;;;;community_centre;;;;;
2703956745;0.6880964;47.3939304;20576;8.02105354669139e-05;;Ikks;;;;;;;;;;;;clothes
2703956746;0.6880370;47.3939201;20576;0.00010897128061925691;;Ikks;;;;;;;;;;;;clothes
2705593072;0.6975564;47.3904675;6664;0.00016355378320149366;;Le Grenadier;;;;;;;restaurant;;;;;
2731082332;0.6935476;47.3802081;2734;0.000320970839797765;;Ararat;;;;;;;;;;;;convenience
2731082333;0.6920224;47.3798278;26961;0.00013864148008547775;;O'Chicken;;;;;;;fast_food;;;;;
2731082334;0.6938350;47.3795268;14716;0.00027597610403726707;;Babel Coiffure;;;;;;;;;;;;hairdresser
2731082336;0.6921991;47.3798590;1110;0.00013983311482342606;;Royal trim liberté;;;;;;;;;;;;hairdresser
2731082353;0.6939854;47.3795554;14716;0.00037560597705514154;;Lycamobile;;;;;;;;;;;;mobile_phone
2732772664;0.7021620;47.4275410;17005;0.00012028320747431213;;Bistro Régent;;;;;;;restaurant;;;;;
2768736795;0.6937505;47.3787175;15935;0.00030243389360720777;;;;;;;;;vending_machine;;;;;
2769909674;0.7068511;47.3615778;31811;0.000162723446376963;;Marché de Monjoyeux;;;;;;;marketplace;;;;;
2769909676;0.7070590;47.3616097;31811;9.814040961861062e-05;;Pharmacie de Montjoyeux;Pharmacie Montjoyeux;;;;;;pharmacy;;;;;
2820275607;0.7571052;47.4086295;5454;0.00035912043940704015;;Bar-brasserie le St Vincent;;;;;;;restaurant;;;;;
2820275610;0.7572254;47.4086407;5454;0.0002388075585068351;;Passiflore;;;;;;;;;;;;florist
2838008626;0.6931980;47.4195992;25484;0.00018662481078516964;;SETIPP SFR Business;;;;;;;;;;;;mobile_phone
2878512110;0.6882438;47.3924672;13625;9.894245802046512e-05;;Argentiel;;;;;;;;;;;;jewelry
2878512111;0.6882714;47.3925345;13625;0.00016437578896478396;;Armand Thiery;;;;;;;;;;;;clothes
2878512112;0.6885374;47.3924519;13623;0.0001445544879961196;;Articles de Paris;;;;;;;;;;;;clothes
2878512113;0.6884286;47.3927870;13633;7.633092426916981e-05;;Burton;;;;;;;;;;;;clothes
2878512114;0.6886721;47.3924747;13607;5.888735008454031e-05;;Carnet de vol;;;;;;;;;;;;clothes
2878512116;0.6886979;47.3924153;13626;6.945365360987781e-05;;Christine Laure;;;;;;;;;;;;clothes
2878512118;0.6883584;47.3923400;13623;7.263642337148318e-05;;Eric Stipa;;;;;;;;;;;;hairdresser
2878512119;0.6881728;47.3923102;13619;9.15873899626008e-05;;Floramie;;;;;;;;;;;;florist
2878512122;0.6882361;47.3923184;13625;5.882941441373006e-05;;Histoire d'Or;;;;;;;;;;;;jewelry
2878512124;0.6885799;47.3928618;13636;6.125332644002637e-05;;Riu Paris;;;;;;;;;;;;clothes
2878512126;0.6884731;47.3928416;13633;0.0001258967831172054;;Les Opticiens Conseils;;;;;;;;;;;;optician
2878512127;0.6886440;47.3929168;13636;7.464154339498323e-05;;Les Opticiens Mutualistes;;;;;;;;;;;;optician
2878512128;0.6886561;47.3927083;13634;5.1053893089945e-05;;Les Opticiens Solaires;;;;;;;;;;;;optician
2878512131;0.6887300;47.3925388;13607;4.475913314277458e-05;;Mademoiselle et vous;;;;;;;;;;;;clothes
2878512133;0.6883012;47.3923301;13625;5.490719442899593e-05;;Mary Kimberley;;;;;;;;;;;;clothes
2878512135;0.6887075;47.3925816;13630;8.975661535765238e-05;;On parle de vous;;;;;;;;;;;;clothes
2878512136;0.6887185;47.3927307;13634;4.93293016357734e-05;;Orcanta;;;;;;;;;;;;clothes
2878512137;0.6883632;47.3924715;13623;8.510816647083561e-05;;Princesse tam.tam;;;;;;;;;;;;clothes
2878512139;0.6886744;47.3926466;13630;4.560394719933764e-05;;Trois par 3;;;;;;;;;;;;shoes
2878512140;0.6883711;47.3924224;13623;4.159062394455851e-05;;TrésOr Paris;;;;;;;;;;;;jewelry
2878512142;0.6888608;47.3924675;13627;6.0532305424332624e-05;;Zara;;;;;;;;;;;;clothes
2878512182;0.6885096;47.3923736;13623;0.00010829242817485817;;1.2.3;;;;;;;;;;;;clothes
2878625619;0.6800378;47.3670481;8390;6.756692978562735e-05;;Polytech Tours - Aménagement et Environement;;Polytech Tours;;;;;college;;;;;
2881639689;0.6892868;47.3888880;18466;0.0001813367309720991;;;;;;;;;vending_machine;;;;;
2881639691;0.6894661;47.3889233;18465;0.0001790777484788919;;;;;;;;;vending_machine;;;;;
2881640414;0.6890813;47.3894149;18476;0.0001810923797406658;;;;;;;;;vending_machine;;;;;
2881640416;0.6892520;47.3894458;18477;0.00018448709981781758;;;;;;;;;vending_machine;;;;;
2881640426;0.6933957;47.3895371;20565;9.927708698361017e-05;;;;;;;;;vending_machine;;;;;
2881640543;0.6874794;47.3933941;13665;4.1677931809647475e-05;;;;;;;;;vending_machine;;;;;
2881640544;0.6876269;47.3934180;13667;3.8118237104859235e-05;;;;;;;;;vending_machine;;;;;
2881640613;0.6863851;47.3960948;38398;2.6811937640339277e-05;;;;;;;;;vending_machine;;;;;
2881640615;0.6865273;47.3961203;38398;0.00015226388278253433;;;;;;;;;vending_machine;;;;;
2881640656;0.6839870;47.4020236;16106;5.099274458150482e-05;;;;;;;;;vending_machine;;;;;
2881640657;0.6841132;47.4020499;16105;7.501386538438077e-05;;;;;;;;;vending_machine;;;;;
2881640817;0.6826402;47.4053053;33946;0.0001442166772602773;;;;;;;;;vending_machine;;;;;
2881640818;0.6827859;47.4053275;33960;0.00019145477272708528;;;;;;;;;vending_machine;;;;;
2881640860;0.6814292;47.4083031;34034;0.00017409379655761387;;;;;;;;;vending_machine;;;;;
2881640861;0.6815657;47.4083226;34037;0.000194709655640773;;;;;;;;;vending_machine;;;;;
2881689568;0.6973018;47.3812710;19950;0.00017885916247259114;;;;;;;;;vending_machine;;;;;
2881689569;0.6974459;47.3812956;12805;8.648404476880401e-05;;;;;;;;;vending_machine;;;;;
2881689657;0.6962040;47.3839651;19963;0.00017393987467327442;;;;;;;;;vending_machine;;;;;
2881689659;0.6963492;47.3839901;11704;0.00015549212198667954;;;;;;;;;vending_machine;;;;;
2881689796;0.6932226;47.3891427;30221;0.0002388977396274707;;;;;;;;;vending_machine;;;;;
2881689797;0.6933757;47.3892198;22510;0.00015524187579259415;;;;;;;;;vending_machine;;;;;
2892957901;0.6505729;47.3350976;34077;0.0007012918508007356;;Segpa du collège privé Saint-Gatien;;;;;;;school;;;;SECTION ENSEIGNT GEN. ET PROF. ADAPTE;
2892957932;0.6532810;47.3446547;32665;0.00038127326158666656;;École maternelle Blotterie;;;;;;;school;;;;maternelle;
2924768224;0.6835847;47.4307079;36840;0.00042463307690328745;;Techni Team;;;;;;;;;;;;motorcycle
2966664665;0.7145582;47.3804869;37219;0.00043257436354710125;;Carrefour;;;;;;;;;;;;supermarket
2966664666;0.7173526;47.3802558;37206;0.00032937677513938837;;Casa;;;;;;;;;;;;furniture
2966664667;0.7154835;47.3798456;37183;0.00041006488510983717;;Celio;;;;;;;;;;;;clothes
2966664671;0.7161237;47.3800133;37216;0.0003072392227564732;;Courrir;;;;;;;;;;;;clothes
2966664672;0.7158478;47.3803004;37216;0.00030991437527315484;;Christine Laure;;;;;;;;;;;;clothes
2966664673;0.7155089;47.3799657;37183;0.0005283333228148978;;Darjeeling;;;;;;;;;;;;clothes
2966664675;0.7149637;47.3800944;37219;0.00036317252098626296;;Devred;;;;;;;;;;;;clothes
2966664676;0.7165610;47.3801298;37195;0.000405262939335912;;Esprit;;;;;;;;;;;;clothes
2966664677;0.7153960;47.3799359;37183;0.0005146269036853041;;Etam;;;;;;;;;;;;clothes
2966664678;0.7149747;47.3798370;37194;0.0002180055962593917;;Fabio Salsa;;;;;;;;;;;;hairdresser
2966664679;0.7146525;47.3795085;37194;0.00025685756753501327;;Flunch;;;;;;;restaurant;;;;;
2966664680;0.7153784;47.3798166;37183;0.0004062209251089742;;Franck Provost;;;;;;;;;;;;hairdresser
2966664681;0.7142075;47.3796235;37205;0.00033141636953882674;;GO Sport;;;;;Go Sport Saint-Pierre-Des-Corps;;;;;;;sports
2966664682;0.7164246;47.3802698;37220;0.0004947105921655283;;Grain de Malice;GDM;GDM;;;;;;;;;;clothes
2966664683;0.7152996;47.3799042;37183;0.0005180159843055151;;Générale d'Optique;;;;;;;;;;;;optician
2966664684;0.7167962;47.3804852;37217;0.0005147026034550866;;Blackstore;;;;;;;;;;;;clothes
2966664685;0.7157354;47.3798623;37216;0.00015334056867177083;;Histoire d'Or;;;;;;;;;;;;jewelry
2966664689;0.7157046;47.3803955;37216;0.00041891647138523296;;Krys;;;;;;;;;;;;optician
2966664691;0.7183269;47.3800062;27724;0.00017096022929363467;;Club Orchestra;;;;;;;;;;;;clothes
2966664695;0.7162146;47.3800487;37216;0.00040142452590766995;;La Compagnie des Petits;;;;;;;;;;;;clothes
2966664696;0.7148535;47.3798892;37194;0.0001748004576661203;;Crédit Agricole;;;;;;;bank;;;;;
2966664699;0.7161067;47.3801774;37216;0.000343778140665985;;Les Opticiens Mutualistes;;;;;;;;;;;;optician
2966664701;0.7151447;47.3797638;37186;0.0003596357184703069;;Marc Orian;;;;;;;;;;;;jewelry
2966664703;0.7167479;47.3801602;37217;0.0002726991382457002;;Minelli;;;;;;;;;;;;shoes
2966664705;0.7150395;47.3797348;37194;0.00025369115081148635;;NAF NAF;;;;;;;;;;;;clothes
2966664707;0.7156042;47.3798667;37216;0.0002471216097393059;;La Casa de las Carcasas;;;;;;;;;;;;mobile_phone
2966664709;0.7169766;47.3801327;37217;0.00013262955929783623;;Paul;;;;;;;;;;;;bakery
2966664710;0.7168257;47.3800529;37217;0.00015246104420594522;;Pharmacie des Atlantes;;;;;;;pharmacy;;;;;
2966664712;0.7151812;47.3798743;37194;0.00042150418740409995;;SFR;;;;;;;;;;;;mobile_phone
2966664715;0.7160136;47.3799499;37216;0.00020086156924642974;;Sergent Major;;;;;;;;;;;;clothes
2966664718;0.7164734;47.3800995;37195;0.000399115647400748;;Tape à l'Œil;;;;;;;;;;;;clothes
2966664719;0.7163242;47.3802426;37220;0.0004539297853186103;;NAF NAF;;;;;;;;;;;;clothes
2966664720;0.7153382;47.3801913;37194;0.000720889852890102;;Texto;;;;;;;;;;;;shoes
2966664723;0.7149188;47.3797111;37194;0.00013397022057139586;;TrésOr;;;;;;;;;;;;jewelry
2966664724;0.7159001;47.3802184;37216;0.00024110033180798455;;Undiz;;;;;;;;;;;;clothes
2966664725;0.7152732;47.3797797;37179;0.0003975924672361142;;Yves Rocher;;;;;;;;;;;;beauty
2966664733;0.7167774;47.3801240;37217;0.00022789394463382698;;Banque Populaire;;;;;;;bank;;;;;
2966664734;0.7142298;47.3799032;37205;0.00018019336835730192;;Body Minute;;;;;;;;;;;;beauty
2966664735;0.7162807;47.3800618;37193;0.00041343335617596193;;Morgan;;;;;;;;;;;;clothes
2966664736;0.7177537;47.3804048;37210;0.00047053267686696397;;Boulanger;;;;;;;;;;;;electronics
2966664737;0.7159497;47.3801364;37216;0.00019597859576736797;;Brice;;;;;;;;;;;;clothes
2966664738;0.7163633;47.3800842;37193;0.0004105913053121426;;Calzedonia;;;;;;;;;;;;clothes
2966664740;0.7151543;47.3801543;37219;0.0005603824854503862;;Carrefour Banque;;;;;;;bank;;;;;
2966665084;0.7148232;47.3799116;37194;0.0001873506071511422;;Crédit Agricole;;;;;;;atm;;;;;
2966665126;0.7152721;47.3801727;37194;0.0006588994839901071;;1.2.3.;;;;;;;;;;;;clothes
2985765213;0.6774487;47.3938090;12670;8.056109482849448e-05;;O' Carré coiffure;;;;;;;;;;;;hairdresser
2985765214;0.6773669;47.3937927;12670;6.653495321839111e-05;;Interflora;;;;;;;;;;;;florist
3021892217;0.6330217;47.3422435;19722;0.0013582271165005588;;CCAS;;;;;;;social_facility;;;;;
3039603215;0.5121028;47.3407819;18351;0.0002736633150401771;;Au Bistrot Gourmand;;;;;;;restaurant;;;;;
3039603218;0.5112633;47.3406622;18215;0.0001456143536935417;;L'Orangerie;;;;;;;restaurant;;;;;
3039603219;0.5114761;47.3403142;11851;6.0623840194667006e-05;;L'Épicerie Gourmande;;;;;;;restaurant;;;;;deli
3039603222;0.5122229;47.3408046;18351;0.00016486919057263577;;L’Atelier du Pain;;;;;;;;;;;;bakery
3039603225;0.5118111;47.3407464;18352;0.0001516451120199905;;Le Cheval Rouge;;;;;;;restaurant;;;;;
3039603227;0.5113962;47.3406209;18215;0.0001975381482192023;;Auberge Le Colombien;;;;;;;restaurant;;;;;
3039604481;0.5114139;47.3394351;3460;0.0001929129596463922;;Mairie;;;;;;;townhall;;;;;
3050350709;0.6795597;47.4287830;28014;0.0006455370554812126;;CFA Tours Franche Comte;Centre de Formation des Compagnons du Devoir du Tour de France de Tours Nord;;;;;;college;;;company;;
3068306111;0.6783919;47.4019760;37820;0.00012238177968666654;;Super Pizza;;;;;;;fast_food;;;;;
3070508977;0.6620948;47.3142152;31895;0.000323601436954711;;La Liodière;;;;;;;restaurant;;;;;
3077892886;0.6654005;47.3618262;20389;0.00017484395900510153;;Sono Concept Plus;;;;;;;;;;;;electronics
3078997182;0.6803352;47.3640812;35416;0.00028644219312080394;;CITERES - Laboratoire Archéologie et Territoires;;;;;;;university;;;;;
3080453934;0.6489784;47.3495212;35758;0.00022888674055078015;;Netto;;;;;;;;;;;;supermarket
3084517650;0.7068193;47.3684115;25398;6.845991527855454e-05;;Idyl-coiff;;;;;;;;;;;;hairdresser
3084517651;0.7072264;47.3685416;25417;0.00012780097808905375;;;;;;;;;;;;;;laundry
3084517652;0.7072020;47.3686464;25417;2.0912436490831546e-05;;Laboratoire d'analyses médicales;;;;;;;doctors;;;;;
3084517653;0.7071482;47.3687457;25417;9.20296691251606e-05;;;;;;;;;;;;;;newsagent
3084517654;0.7071303;47.3688229;20254;0.00015126830468125638;;;;;;;;;;;;;;butcher
3084517657;0.7080389;47.3689982;28177;0.0001114021992581968;;Le Fournil Maxipaul;;;;;;;;;;;;bakery
3084517659;0.7080552;47.3689298;25420;0.00015406914032222647;;Différence;;;;;;;;;;;;hairdresser
3084517660;0.7080699;47.3688802;25420;0.00010362591374886725;;Coiff&Co;;;;;;;;;;;;hairdresser
3089367987;0.6642922;47.3568052;24779;0.00018870392152988728;;Tabac de la Grange;;;;;;;;;;;;newsagent
3089367988;0.6641701;47.3567153;24779;0.00033161412816803384;;PFI 37;;;;;;;;;;;;funeral_directors
3089367989;0.6640830;47.3566280;281;0.00029890388087156357;;Institut Papyrus;;;;;;;;;;;;beauty
3089367993;0.6609908;47.3526480;40005;0.00018760063965807621;;Crédit Agricole;;;;;;;bank;;;;;
3089367994;0.6611343;47.3525535;12733;0.00010930457446800383;;Carpy;;;;;;;;;;;;hairdresser
3089367995;0.6615810;47.3522975;38930;0.0001381446343510875;;Caisse d'Épargne;;;;;;;bank;;;;;
3089367996;0.6616561;47.3522484;38930;0.00021306693783854246;;Atol;;;;;;;;;;;;optician
3089367997;0.6612966;47.3519457;12716;0.00017242183736683816;;La manufacture;;;;;;;;;;;;gift
3089367998;0.6612832;47.3518948;12716;0.00013092364186750264;;Laverie discount;;;;;;;;;;;;laundry
3089367999;0.6615226;47.3521419;38930;0.00015422068603081855;;Laurence Baudouin;;;;;;;;;;;;clothes
3089368001;0.6616574;47.3520793;9011;0.00026780896176125963;;Barber One;;;;;;;;;;;;hairdresser
3089368003;0.6617685;47.3518653;10508;7.137597635068434e-05;;Pharmacie Germain;;;;;;;pharmacy;;;;;
3089368047;0.6603692;47.3527852;19750;0.00016196030377769446;;Media Services;;;;;;;;;;;;electronics
3089576123;0.6637437;47.3539448;11301;0.00010820559135274669;;JMB artisan coiffeur;;;;;;;;;;;;hairdresser
3089576126;0.6638805;47.3542374;11305;0.00011696328483770802;;O'Mac city;;;;;;;fast_food;;;;;
3089576127;0.6639046;47.3542937;11305;0.0001592785296238929;;L'Onglerie;;;;;;;;;;;;beauty
3089576128;0.6639287;47.3543482;11305;0.00020929722883439078;;La Fleur de Sel;;;;;;;restaurant;;;;;
3089576130;0.6640763;47.3549551;5975;0.00026950046382173584;;Cabinet de kinésithérapie;;;;;;;doctors;;;;;
3089619407;0.6620107;47.3515957;8973;0.00025509121897992484;;Danielle Fleurs;;;;;;;;;;;;florist
3089619408;0.6624687;47.3514237;10536;0.00011782673720497616;;La boîte à chaussures;;;;;;;;;;;;shoes
3089619409;0.6623958;47.3515169;29552;4.190047732246076e-05;;Institut inter régional pour la santé;;;;;;;doctors;;;;;
3106399668;0.6918877;47.3904070;38630;0.0001039032242000879;;Dakota café;;;;;;;restaurant;;;;;
3106492868;0.6945041;47.3738133;19557;0.0001554440413771987;;Verdun;;;;;;;vending_machine;;;;;
3106492869;0.6940049;47.3773251;26451;4.8004687271733085e-05;;;;;;;;;vending_machine;;;;;
3106492870;0.6939106;47.3775821;20548;0.0002908542590362521;;;;;;;;;vending_machine;;;;;
3106492871;0.6940557;47.3776013;2716;0.00029967624197259986;;;;;;;;;vending_machine;;;;;
3106492872;0.6939470;47.3778676;20549;3.839427040599498e-05;;;;;;;;;vending_machine;;;;;
3106492873;0.6939701;47.3798779;31383;0.00024044069955272802;;;;;;;;;vending_machine;;;;;
3106492874;0.6939364;47.3799780;31383;0.000183336221188629;;;;;;;;;vending_machine;;;;;
3106492875;0.6928597;47.3801780;1137;0.00015271584724721452;;;;;;;;;vending_machine;;;;;
3106492876;0.6929798;47.3802042;32788;0.0001616067449125911;;;;;;;;;vending_machine;;;;;
3106492877;0.6877144;47.3899024;35156;3.347551343811405e-05;;;;;;;;;vending_machine;;;;;
3106492878;0.6881576;47.3902811;11252;7.688016649414606e-05;;;;;;;;;vending_machine;;;;;
3106492893;0.6850682;47.4122171;28393;0.00024905537536764737;;;;;;;;;vending_machine;;;;;
3106492894;0.6849850;47.4122782;28393;0.00022229793071561432;;;;;;;;;vending_machine;;;;;
3106492895;0.6836210;47.4163043;2144;0.00037409485428491077;;;;;;;;;vending_machine;;;;;
3106492896;0.6837569;47.4163103;34765;0.0003816956903054344;;;;;;;;;vending_machine;;;;;
3106492927;0.7003818;47.4210830;41537;0.0002569439238432699;;;;;;;;;vending_machine;;;;;
3106494043;0.6622996;47.3447956;12013;0.00017412415111303463;;;;;;;;;vending_machine;;;;;
3106494044;0.6624367;47.3447975;32832;0.00015002186507330037;;;;;;;;;vending_machine;;;;;
3106494045;0.6633952;47.3483137;12022;0.00018220134467590208;;;;;;;;;vending_machine;;;;;
3106494046;0.6632658;47.3483322;24934;8.111405550174343e-05;;;;;;;;;vending_machine;;;;;
3106494047;0.6629019;47.3515471;28200;6.900384047150514e-05;;;;;;;;;vending_machine;;;;;
3106494048;0.6627720;47.3515780;33435;0.00018830254911047812;;;;;;;;;vending_machine;;;;;
3106494049;0.6646617;47.3552291;27324;6.0907799169905726e-05;;;;;;;;;vending_machine;;;;;
3106494050;0.6645315;47.3552694;27324;0.00017781487564305596;;;;;;;;;vending_machine;;;;;
3106494051;0.6739145;47.3627104;33496;0.00018468638282140564;;;;;;;;;vending_machine;;;;;
3106494052;0.6737811;47.3627430;33489;0.00018823052356411503;;;;;;;;;vending_machine;;;;;
3106494054;0.6780501;47.3671249;37628;0.0002612178592675494;;;;;;;;;vending_machine;;;;;
3106494055;0.6781010;47.3672166;37628;0.00024916028977450805;;;;;;;;;vending_machine;;;;;
3106494056;0.6844134;47.3672200;13090;0.00011831690496835937;;;;;;;;;vending_machine;;;;;
3106494057;0.6842901;47.3672442;16143;0.00013924403039129084;;;;;;;;;vending_machine;;;;;
3106494058;0.6895938;47.3729860;33243;0.0002530948636387034;;;;;;;;;vending_machine;;;;;
3106494059;0.6895722;47.3730796;33245;0.00025432288532538453;;;;;;;;;vending_machine;;;;;
3106494060;0.6955442;47.3735813;2697;7.88343199405338e-05;;Verdun;;;;;;;vending_machine;;;;;
3106494061;0.6956761;47.3735885;2698;0.00010612181679784291;;Verdun;;;;;;;vending_machine;;;;;
3106494062;0.6944942;47.3737127;19557;8.893784346273393e-05;;Verdun;;;;;;;vending_machine;;;;;
3106502384;0.6579535;47.3381984;11968;0.00017880685110485372;;;;;;;;;vending_machine;;;;;
3106502385;0.6578009;47.3382075;15001;0.00010952428954311872;;;;;;;;;vending_machine;;;;;
3106502386;0.6602720;47.3421284;12008;0.00019423833298457696;;;;;;;;;vending_machine;;;;;
3106502387;0.6603927;47.3421770;12004;0.00019093119179404734;;;;;;;;;vending_machine;;;;;
3106503820;0.7004072;47.4211820;41540;0.00026254294886794466;;;;;;;;;vending_machine;;;;;
3106503823;0.6834108;47.4218179;8104;0.0004452003256998332;;;;;;;;;vending_machine;;;;;
3106503824;0.6835414;47.4218254;8104;0.00044955253308750993;;;;;;;;;vending_machine;;;;;
3106504659;0.6976051;47.4236671;24007;0.00017954971456305866;;;;;;;;;vending_machine;;;;;
3106504840;0.6911293;47.4233420;42977;0.0001550899094096333;;;;;;;;;vending_machine;;;;;
3106504841;0.7097615;47.4233786;24453;6.831171202398032e-05;;;;;;;;;vending_machine;;;;;
3106504842;0.6911201;47.4234331;42977;6.44792214626272e-05;;;;;;;;;vending_machine;;;;;
3106504843;0.7097729;47.4234772;24453;0.00016057038954717185;;;;;;;;;vending_machine;;;;;
3106504846;0.6975153;47.4235945;23777;0.00016259163570160476;;;;;;;;;vending_machine;;;;;
3106612250;0.6927987;47.3905679;13828;0.00037957660623439104;;;;;;;;;vending_machine;;;;;
3106612251;0.6928219;47.3909763;22539;0.00016091566113958663;;;;;;;;;vending_machine;;;;;
3106612619;0.6915157;47.3838320;23352;0.00010457762667083949;;;;;;;;;vending_machine;;;;;
3106612620;0.6903272;47.3863944;30064;0.00023350854374472378;;;;;;;;;vending_machine;;;;;
3116175593;0.6873618;47.3891718;30010;0.00018941924400297006;;SOS Médecins;;;;;;;doctors;;;;;
3126991479;0.6937105;47.3869082;13844;0.00015010826092977757;;Gomina;;;;;;;;;;;;hairdresser
3138370511;0.6933109;47.3936701;3372;0.0005779091451075908;;Foyer Jeunes Travailleurs;;;;;;;restaurant;;;;;
3140324677;0.6866219;47.3919566;13658;7.911030274446858e-05;;Cyclable;;;;;;;;;;;;bicycle
3143493002;0.6849905;47.3664083;10821;0.0003577744820455049;;Bibliothèque universitaire Droit;;;;;;;library;;;;;
3145877904;0.7188685;47.3894266;39081;0.00024623931449090845;;Marché Place Thorez;;;;;;;marketplace;;;;;
3150527904;0.6843399;47.4187322;12212;0.0003214562023030196;;Pharmacie Mutualiste;;;;;;;pharmacy;;;;;
3151001330;0.6810094;47.4262375;15964;0.0003112668629980904;;Marché du Maine;;;;;;;marketplace;;;;;
3151063761;0.6960462;47.4188804;22450;0.00014686500604361413;;B... comme bon;Festival des Pains;;;;;;;;;;;bakery
3151325576;0.6957413;47.4186195;9505;0.0004698482520954318;;Fleurs ô naturel;;;;;;;;;;;;florist
3162998161;0.7311543;47.3758009;5420;0.0008933249856612867;;Section d'enseignement général et professionnel adapté du Collège Pierre Corneille;;;;;;;school;;;;SECTION ENSEIGNT GEN. ET PROF. ADAPTE;
3172253061;0.7089021;47.4284121;7666;0.00012763643680950123;;Ristorante Del Arte;;;;;;;restaurant;;;;;
3172256661;0.7151926;47.3795605;37179;0.0002233769236067832;;Ristorante Del Arte;;;;;;;restaurant;;;;;
3176792981;0.6597354;47.3485995;273;0.00010971440197133267;;Écouter Voir;;;;;;;;;;;;optician
3177352061;0.6639726;47.3487100;12026;0.00022137339496852996;;Pharmacie de l'Ilot;;;;;;;pharmacy;;;;;chemist
3211464114;0.6963722;47.4709850;36352;0.00010180397831221912;;Pharmacie Barret;;;;;;;pharmacy;;;;;
3211464115;0.6399822;47.4362264;23666;7.444763260463816e-05;;;;;;;;;vending_machine;;;;;
3211464116;0.6579852;47.4476183;42400;9.205004073975306e-05;;;;;;;;;vending_machine;;;;;
3229978996;0.7757437;47.4307872;9163;0.0005596434043205358;;Foyers de Vie La Bellangerie-Val De Loire;ADAPEI Foyers de Vie de La Bellangerie;;;;;;social_facility;;;;;
3234562392;0.7229191;47.3553681;26533;0.00010460616616466304;;La Cabane Vegetale;;;;;;;;;;;;florist
3234562395;0.7221547;47.3551485;26510;0.00021505155195843933;;Formes et nuances;;;;;;;;;;;;hairdresser
3234562396;0.7230116;47.3553908;26533;0.0001409363331443411;;Intemporelle;;;;;;;;;;;;beauty
3234562397;0.7222570;47.3551890;22757;0.00027321423828787254;;La Pause Déj';;;;;;;fast_food;;;;;
3234570690;0.7228016;47.3553401;26533;0.00016091550577775182;;8 à Huit;;;;;;;;;;;;convenience
3246560561;0.6968508;47.3488457;2274;0.00010716179356405414;;Acajou Coiffure;;;;;;;;;;;;hairdresser
3246560564;0.7137503;47.3389730;7368;8.330000000000837e-05;;Boulangerie Cannelle et Cacao;;;;;;;;;;;;bakery
3246560569;0.7241762;47.3333442;17529;0.0004865990649394834;;La Boul'Angerit;;;;;;;;;;;;bakery
3246560571;0.7220120;47.3314728;36747;0.002390746973228168;;Mon Marché Bio;;;;;;;;;;;;greengrocer
3246560572;0.7136416;47.3389439;7374;8.006653483070634e-05;;La Fontaine aux Fleurs;;;;;;;;;;;;florist
3246560574;0.7134936;47.3389344;7374;7.969002446972225e-05;;Les Nymphéas;;;;;;;;;;;;beauty
3246560576;0.6966323;47.3485352;16491;0.0001320173094734214;;Pharmacie des Perriers;;;;;;;pharmacy;;;;;
3246560577;0.7098894;47.3395771;25278;0.00016870151155238874;;Pharmacie des Pommiers;;;;;;;pharmacy;;;;;
3246560578;0.6962620;47.3488192;16486;9.778394551175568e-05;;Les Perriers;;;;;;;;;;;;newsagent
3251078457;0.7428945;47.3598007;37887;0.00012749031335729713;;Atou'Beauté;;;;;;;;;;;;beauty
3273369947;0.6908216;47.3960057;27396;0.0001176415317823222;;La Bekaa;;;;;;;restaurant;;;;;
3273369949;0.6902817;47.3958337;27392;4.677135876179986e-05;;L'étape à pâtes;;;;;;;restaurant;;;;;
3273369950;0.6891800;47.3957591;10206;0.00017926697966975873;;Libr'Enfant;;;;;;;;;;;;books
3273369951;0.6882183;47.3957169;27408;0.0001290155029485304;;L'Equateur;;;;;;;;;;;;jewelry
3273369952;0.6896287;47.3958301;22501;6.504398511624935e-05;;Le Beyrouth;Beyrouth;;;;;;restaurant;;;;;
3273369954;0.6894539;47.3957118;9353;4.576832966050255e-05;;Le Surya;Surya;;;;;;restaurant;;;;;
3297365661;0.7008990;47.3849230;27948;0.00024111544952808663;;Liberty Hair;;;;;;;;;;;;hairdresser
3331080482;0.6679680;47.3910846;13244;0.00038590594709237986;;La Belle Époque;;;;;;;;;;;;bakery
3331116916;0.6721143;47.3933844;41766;0.00020387272990703178;;Coiff Harmony;;;;;;;;;;;;hairdresser
3331120507;0.6678682;47.3915190;540;0.00012379163945745478;;Le Jean Bart;;;;;;;bar;;;;;newsagent
3353024524;0.6842922;47.3933858;12184;7.026763124097385e-05;;Voisin;;;;;;;;;;;;gift
3353038254;0.6846039;47.3934165;12184;0.0003740043315258142;;Stone;;;;;;;;;;;;shoes
3353059884;0.6847854;47.3934315;21495;0.0002768519098742434;;Tamtam;;;;;;;;;;;;shoes
3353069351;0.6847090;47.3934251;12184;0.0004791482547188089;;Sym;;;;;;;;;;;;clothes
3353075326;0.6848463;47.3934660;21495;0.0002072034748767422;;Diamo;;;;;;;;;;;;clothes
3353075505;0.6849178;47.3934482;21495;0.00015477225203574063;;Show Room;;;;;;;;;;;;clothes
3353084247;0.6851919;47.3934937;21495;0.0001636540558625231;;Pharmacie du Centre;;;;;;;pharmacy;;;;;
3353647675;0.6881548;47.3916224;11010;0.0004762792878084182;;C&A;;;;;;;;;;;;clothes
3353647677;0.6877580;47.3933837;13668;8.875409849732984e-05;;Du Pareil au Même;;;;;;;;;;;;clothes
3353647678;0.6877190;47.3934697;20035;0.00021807980190971407;;Etam;;;;;;;;;;;;clothes
3353647681;0.6880659;47.3918164;24235;0.00027729395953875636;;Grignotine;;;;;;;fast_food;;;;;
3353647682;0.6877743;47.3933250;13668;0.0001277225508706505;;Jules;;;;;;;;;;;;clothes
3353647683;0.6878045;47.3932450;25715;0.0001050769242040261;;Kookaï;;;;;;;;;;;;clothes
3353647684;0.6878862;47.3930841;25715;0.00012791223553501306;;Louis Pion;;;;;;;;;;;;jewelry
3353647687;0.6881019;47.3917369;11010;0.00035721928839288253;;Optic 2000;;;;;;;;;;;;optician
3353647688;0.6880830;47.3917780;11010;0.0003158228617393789;;Pierre et Nina;;;;;;;;;;;;shoes
3353647689;0.6878347;47.3931794;25715;7.040227269139818e-05;;Lissac;Maison Bracq;;;;;Salamander;;;;;;optician
3359422379;0.6937194;47.3912760;40318;0.00023587115126690318;;Alicia Wolszezack;;;;;;;;;;;;hairdresser
3359422381;0.6937011;47.3923140;21614;5.263430440197055e-05;;HBH by hubo;;;;;;;;;;;;hairdresser
3359422385;0.6937421;47.3921257;21614;0.00015693884159042652;;City;;;;;;;;;;;;hairdresser
3359422386;0.6937486;47.3918719;21614;0.00040265420648695423;;EsthétiCity;;;;;;;;;;;;hairdresser
3359422392;0.6934189;47.3930872;21667;0.0006659273233643202;;Jù-Lan;;;;;;;restaurant;;;;;
3359424194;0.6936000;47.3926581;21613;0.00039548078335091997;;La tentation;;;;;;;fast_food;;;;;
3359424196;0.6935875;47.3926985;21613;0.0004364609031775871;;Le Cadeau Gourmand;;;;;;;;;;;;convenience
3359424199;0.6933346;47.3928736;21613;0.0006719542990438322;;Or & Argent;;;;;;;;;;;;jewelry
3359424204;0.6931745;47.3932086;21667;0.0008760077853537844;;Vinci (La Pétrie);;;;;;;;;;;;bakery
3359424205;0.6928259;47.3939582;3372;8.49379185051077e-05;;Tatev beauty;;;;;;;;;;;;beauty
3359424206;0.6934934;47.3912772;40322;0.0002172411793358011;;Crédit Agricole;;;;;;;atm;;;;;
3373047530;0.6799993;47.4093747;6383;0.00024908153283685066;;Gopal;;;;;;;restaurant;;;;;
3397929951;0.6662762;47.3996806;18850;0.00017009894179469714;;Salle Grandgousier;;;;;;;community_centre;;;;;
3397929952;0.6662750;47.3997498;38895;0.0003110142922764726;;Salle Rabelais;;;;;;;community_centre;;;;;
3397929953;0.6660401;47.3997153;6821;0.00020685456243373107;;Salle Seuilly;;;;;;;community_centre;;;;;
3397929954;0.6663124;47.3995736;6817;9.137620040038661e-05;;Salle de la Devinière;;;;;;;community_centre;;;;;
3397955507;0.7186659;47.3903496;21018;0.00037875455113084303;;École Élémentaire République/Line-Porcher;;;;;;;school;;;;élémentaire;
3397961625;0.7252201;47.3669827;22179;0.0001839370816337786;;Carpy;;;;;;;;;;;;hairdresser
3397961628;0.7265220;47.3670977;21435;4.3179277436713686e-05;;4 Pattes & Compagnie;;;;;;;;;;;;pet
3397961631;0.7256647;47.3669619;32630;0.0003495460627730006;;Steff Coiffure;;;;;;;;;;;;hairdresser
3397970016;0.7153851;47.3398448;7441;4.0800122549554234e-05;;La Boutique du Coeur;;;;;;;recycling;;;;;clothes
3397970028;0.7153088;47.3390569;35375;0.00014123859245510976;;Cabinet Médical du Centre Bourg;;;;;;;doctors;;;;;
3398685874;0.7030131;47.3360363;22234;0.00046685206436124135;;Mamie Bigoude;;;;;;;restaurant;;;;;
3398685875;0.7032626;47.3360763;22234;0.0002577512366590173;;Chez Charly;;;;;;;restaurant;;;;;
3402757420;0.6860363;47.3935963;5601;0.00013236872742310095;;Gérard Darel;;;;;;;;;;;;clothes
3402765172;0.6859223;47.3935775;5601;0.00023774616716030803;;Finsbury;;;;;;;;;;;;shoes
3402768911;0.6858545;47.3935692;13304;0.0006354460637977186;;A CÔTE;;;;;;;;;;;;clothes
3402768912;0.6857959;47.3935608;13304;0.0006424591660131218;;Femme plus;;;;;;;;;;;;clothes
3402773886;0.6857189;47.3935504;13304;0.0006590546107836252;;Mephisto;;;;;;;;;;;;shoes
3402773887;0.6856388;47.3935420;21495;0.0006017191454491931;;The Koples;;;;;;;;;;;;clothes
3402787759;0.6855186;47.3935316;21495;0.0004817398571843755;;ZAPA;;;;;;;;;;;;clothes
3402787760;0.6854293;47.3935170;21495;0.0003933304971649866;;Chevignon;;;;;;;;;;;;clothes
3420417979;0.6270002;47.3431015;31122;0.0005534405568803601;;Genty Portes et Fenêtres;;;;;;;;;;;;furniture
3420417982;0.6273034;47.3431433;31122;0.00025485739149548673;;Ozzy Pizzeria;;;;;;;restaurant;;;;;
3430656233;0.6927512;47.3849149;35210;0.0003145187116818375;;Espace Santé Jeunes;;;;;;;social_facility;;;;;
3430656234;0.6951928;47.3854355;29975;8.293853145749258e-05;;Le 75;;;;;;;fast_food;;;;;
3430656236;0.6954799;47.3847056;35209;0.00023173023108662057;;Le Longchamp;;;;;;;cafe;;;;;newsagent
3430656237;0.6933117;47.3832730;32891;0.0001656600434614847;;NewSports Tours;;;;;;;;;;;;sports
3430656260;0.6929494;47.3854125;29974;0.0003164733796068704;;Rivages Exotiques;;;;;;;;;;;;convenience
3444490797;0.6915910;47.3867572;5267;0.0004504053729712519;;Campus de SUPINFO;;;;;;;college;;;;;
3447140340;0.6796196;47.3924974;33644;0.0001114131949075916;;"Marché ""Carreau des Halles""";;;;;;;marketplace;;;;;
3448803131;0.7019973;47.3911227;26298;0.0005366836405160403;;L'Interm'Aide;;;;;;;social_facility;;;;;
3448803132;0.7019571;47.3912002;26298;0.0006234007539300574;;Secours Catholique;;;;;;;social_facility;;;;;
3450961116;0.6785633;47.3941700;6143;5.500445436832465e-05;;La Bicyclerie;;;;;;;;;;;;bicycle
3451688182;0.7325583;47.3920289;13456;0.0001329819536634378;;Boulangerie Tourneur;;;;;;;;;;;;bakery
3451688187;0.7328145;47.3924833;13081;0.00019162614644022507;;Marché Bd Déportés;;;;;;;marketplace;;;;;
3451689504;0.7323848;47.3919985;25247;0.00011000045454274019;;Style en Vogue;;;;;;;;;;;;hairdresser
3451689535;0.7341373;47.3919244;25274;0.0005762387873090393;;;;;;;;;marketplace;;;;;
3451689552;0.7324427;47.3923540;13079;0.0001919798166508478;;Pharmacie de la locomotive;;;;;;;pharmacy;;;;;
3451907270;0.7064035;47.3968930;1484;0.00011718724333204363;;Le Grillon;;;;;;;restaurant;;;;;
3451907271;0.7060133;47.3969272;22408;0.00016266247262314342;;Les 4 Saisons;;;;;;;restaurant;;;;;
3451934354;0.7183759;47.3889867;5511;0.00016005755214942318;;EGC Star;;;;;;;;;;;;beauty
3451934355;0.7181128;47.3887388;42921;0.00027484548386361515;;Laverie Libre Service;;;;;;;;;;;;laundry
3451934358;0.7177448;47.3896405;12211;0.0001898695604897327;;Pharmacie Boulay;;;;;;;pharmacy;;;;;
3452050074;0.7237138;47.3855536;14148;0.00011497591052066654;;;;;;;;;vending_machine;;;;;
3452050077;0.7233358;47.3856161;14174;0.0003501621338725881;;;;;;;;;vending_machine;;;;;
3452050080;0.7233336;47.3856232;14174;0.00034272941221867413;;;;;;;;;vending_machine;;;;;
3452050088;0.7237350;47.3857710;14163;3.325612725817185e-05;;;;;;;;;vending_machine;;;;;
3452058280;0.7240148;47.3854663;14133;2.024845673170694e-05;;;;;;;;;vending_machine;;;;;
3452061119;0.7234680;47.3859786;14180;0.0001107503950336127;;;;;;;;;vending_machine;;;;;
3452061120;0.7234790;47.3859814;14180;9.94616006320679e-05;;;;;;;;;vending_machine;;;;;
3452061122;0.7234886;47.3859848;14180;8.927939291902483e-05;;;;;;;;;vending_machine;;;;;
3452061123;0.7235005;47.3859882;14180;7.695323255173136e-05;;;;;;;;;vending_machine;;;;;
3452061127;0.7234403;47.3860498;14198;0.00012152407168470046;;;;;;;;;vending_machine;;;;;
3452061128;0.7234655;47.3860498;6094;0.00010789337329020847;;;;;;;;;vending_machine;;;;;
3452061129;0.7234197;47.3860511;14198;0.00013231300011203024;;;;;;;;;vending_machine;;;;;
3452061130;0.7234061;47.3860611;14198;0.0001341694823702378;;;;;;;;;vending_machine;;;;;
3452061133;0.7234436;47.3860655;14198;0.0001065031454898752;;;;;;;;;vending_machine;;;;;
3452061134;0.7234623;47.3860655;14198;9.731931976351263e-05;;;;;;;;;vending_machine;;;;;
3452061135;0.7234232;47.3860666;14198;0.00011827649808593806;;;;;;;;;vending_machine;;;;;
3452061197;0.7241447;47.3858665;14151;0.0002537227817923865;;;;;;;;;vending_machine;;;;;
3452061218;0.7235812;47.3860260;14182;1.231787319286505e-05;;;;;;;;;vending_machine;;;;;
3452061223;0.7236057;47.3860346;14184;1.3449535308257332e-05;;;;;;;;;vending_machine;;;;;
3452061261;0.7238033;47.3860978;14191;4.8507731340395614e-05;;;;;;;;;vending_machine;;;;;
3452308891;0.7199320;47.3894934;29740;0.00044679044304939006;;;;;;;;;;;;;;books
3452308892;0.7207658;47.3895080;19924;0.00017979766405535496;;Argan Coiffure;;;;;;;;;;;;hairdresser
3452309296;0.7228638;47.3896176;18512;0.00012804721785281684;;Editions l'élan vert;;;;;;;;;;;;books
3452309297;0.7230670;47.3898919;18311;5.890407456235351e-05;;Boulanger-Pâtissier Guignon;;;;;;;;;;;;bakery
3452309300;0.7220534;47.3895768;19925;0.0004194741589180833;;Caisse d'Épargne;;;;;;;bank;;;;;
3452309301;0.7257143;47.3900674;18310;0.0001339059744758051;;CocciMarket;;;;;;;;;;;;convenience
3452309302;0.7236085;47.3899210;18309;0.0005661408393677614;;Coiffure Valérie;;;;;;;;;;;;hairdresser
3452309303;0.7204918;47.3894871;29740;0.00019645989412870557;;Crédit Agricole;;;;;;;bank;;;;;
3452309304;0.7194138;47.3892244;38234;0.00016980959925599158;;Escale Coiffure;;;;;;;;;;;;hairdresser
3452309305;0.7204314;47.3901043;37497;8.831721236522838e-05;;Ets. Mariano;;;;;;;;;;;;convenience
3452309307;0.7217381;47.3895634;19925;0.0007316014352090888;;Intermède Couleur et Création;;;;;;;;;;;;hairdresser
3452309308;0.7234787;47.3899036;18311;0.0004561717768555103;;L'Aralia;;;;;;;;;;;;florist
3452309309;0.7257656;47.3898071;18310;0.0001399801771675255;;L'Avenir;;;;;;;restaurant;;;;;
3452309311;0.7191342;47.3890154;38234;0.0003113167197582359;;L'Infinie Beauté;;;;;;;;;;;;beauty
3452309312;0.7191318;47.3891286;38234;0.0002145434687893889;;La Friperie;;;;;;;;;;;;clothes
3452309313;0.7229528;47.3898873;18311;8.193393680121894e-05;;Le Narval;;;;;;;;;;;;newsagent
3452309316;0.7193886;47.3887579;16623;0.00039136730829116375;;Maison de la Presse (Magpresse);;;;;;;;;;;;newsagent
3452309322;0.7237753;47.3899305;18309;0.0003996325562312818;;Pharmacie Breton;;;;;;;pharmacy;;;;;
3452309325;0.7197699;47.3893612;38234;0.0005121303056843848;;Société Générale;;;;;;;bank;;;;;
3452309326;0.7212207;47.3917512;33117;0.00013173826323147075;;Valépi;;;;;;;;;;;;bakery
3455750252;0.6765310;47.3936605;2900;0.00019395716021810842;;Mr Marcel;;;;;;;fast_food;;;;;
3458154190;0.7179752;47.3698638;17231;0.0004991625186274438;;Le 24 Brasserie;;;;;;;restaurant;;;;;
3459827877;0.6660692;47.3908612;24616;7.027958452138162e-05;;Alimentation Générale;;;;;;;;;;;;convenience
3459827880;0.6669436;47.3905638;12853;6.37621360983967e-05;;Le Temps des Capucines;;;;;;;;;;;;hairdresser
3459827881;0.6666092;47.3904371;12833;0.00010375707204740242;;MM Coiffeur Visagiste;;;;;;;;;;;;hairdresser
3463558164;0.6932454;47.4021905;23980;8.731466085460402e-05;;Ressource Fleurie;;;;;;;;;;;;florist
3465915965;0.7342116;47.3813242;25860;0.00026876011608893615;;Buroter;Tereygeol;;;;;;;;;;;stationery
3465915966;0.7213314;47.3806436;40455;0.000516882230298533;;Castors de l'Ouest;;;;;;;;;;;;doityourself
3465915969;0.7377453;47.3819107;39553;0.0003984669873369736;;Envie Électroménager;Envie Touraine;;;;;;;;;;;electronics
3465915970;0.7251208;47.3816561;3383;0.001362231419398637;;Foussier;;;;;;;;;;;;hardware
3465915972;0.7241217;47.3809882;3383;0.00023869315030165797;;Le Break;;;;;;;restaurant;;;;;
3465915973;0.7234048;47.3814906;26941;0.00021377417992191213;;Legallais;;;;;;;;;;;;hardware
3465915974;0.7222353;47.3795003;3389;0.00034894493835574555;;Les Fromentiers - La Maison des Pains;;;;;;;;;;;;bakery
3465915979;0.7241811;47.3800547;1229;0.0004681644369247208;;Sodiprem;;;;;;;;;;;;electronics
3468398426;0.6843570;47.4018462;15166;5.570035906524469e-05;;Caliméro Food;;;;;;;fast_food;;;;;
3473171574;0.6565265;47.3886042;33348;0.00025444103442849825;;Centre de soins du Prieuré;;;;;;;doctors;;;;;
3476390517;0.7265886;47.3680691;22173;0.00019198776002288842;;Dr Lagier et Berton dermatologue;;;;;;;doctors;;;;;
3476390522;0.7264388;47.3682613;37409;7.294066081242219e-05;;Banque Populaire;;;;;;;bank;;;;;
3476390530;0.7265209;47.3679191;22173;0.00012916628817099022;;Pharmacie de l'Avenir;;;;;;;pharmacy;;;;;
3476480969;0.6982223;47.4273907;34228;0.0005033312328858673;;Valege lingerie;;Agence SNCF;;;;;;;;;;clothes
3476726722;0.7199286;47.3434455;27602;0.0003827756523096548;;École maternelle Maryse Bastié;;;;;;;school;;;;maternelle;
3476726724;0.7208972;47.3440028;27627;0.00040670033193838506;;École élémentaire Paul-Louis Courier;;;;;;;school;;;;élémentaire;
3477290516;0.7243354;47.3552302;27355;9.04418597749546e-05;;;;;;;;;dentist;;;;;
3477290517;0.7243387;47.3552159;27355;0.00010059448295061807;;Cabinet Gynécologique du Docteur Céline Descriaud;;;;;;;doctors;;;;;
3477290547;0.7245472;47.3553376;27355;0.0001617655402118507;;;;;;;;;vending_machine;;;;;
3477290550;0.6982416;47.3568650;31950;0.00012900426349800635;;;;;;;;;vending_machine;;;;;
3477290552;0.7356609;47.3574356;7454;0.0006250853701716247;;;;;;;;;vending_machine;;;;;
3477290554;0.7340828;47.3628229;34397;0.0001994000250751854;;;;;;;;;vending_machine;;;;;
3478226190;0.6952891;47.3895137;20567;0.0001433724171558692;;Matchi;;;;;;;restaurant;;;;;
3478238534;0.6953396;47.3894718;20567;0.00012412046568112346;;Délices;;;;;;;fast_food;;;;;
3478257820;0.6947817;47.3898848;6702;0.00016036486522814296;;Sucré-Salé, Tarterie - Pizza;;;;;;;fast_food;;;;;
3478262149;0.6947191;47.3899417;6702;0.0001407054369957806;;Hot Dogs Family;;;;;;;fast_food;;;;;
3478437433;0.7148393;47.3437335;25796;0.00024736064764254546;;Banette;;;;;;;;;;;;bakery
3478437434;0.7150659;47.3433704;30007;0.00016422868202592235;;Bar Tabac Presse de la Plaine;;;;;;;bar;;;;;newsagent
3478437435;0.7150315;47.3432728;30005;0.00015904543375971382;;Le Dab Restaurant;;;;;;;fast_food;;;;;
3478437436;0.7149611;47.3431164;26476;0.0001700809807122047;;Melinka Coiffure;;;;;;;;;;;;hairdresser
3478437440;0.7149969;47.3431885;30005;0.00016589454481668488;;Supérette La Plaine;;;;;;;;;;;;convenience
3478912905;0.7145335;47.3438320;36773;0.00023364699869640054;;BNP Paribas;;;;;;;bank;;;;;
3478912906;0.7147382;47.3437665;25796;0.00022172640799198416;;Artisan Charcutier-Traiteur Fessard;;;;;;;;;;;;butcher
3478912907;0.7146413;47.3437961;25796;0.00024413744080270048;;Pharmacie Jean Baptiste;;;;;;;pharmacy;;;;;
3479342927;0.7046086;47.3475159;31662;0.0001431476510482286;;Budo Spirit;;;;;;;;;;;;sports
3481425031;0.6674602;47.3913030;18193;0.00014322639421622367;;Dr Carine Voyer;;;;;;;doctors;;;;;
3481451371;0.6674470;47.3910652;35306;0.00021681579739363157;;Snack Time;;;;;;;restaurant;;;;;
3482541130;0.7013419;47.3917408;8073;0.00014930026791635183;;Aux Délices de Touraine;;;;;;;;;;;;bakery
3482567364;0.7030397;47.3882576;6248;8.469899645263312e-05;;Pharmacie Velpeau;;;;;;;pharmacy;;;;;
3486101946;0.7097556;47.3790380;22832;0.0001758025312662884;;Active;;;;;;;;;;;;second_hand
3486754709;0.6589166;47.3871321;41482;0.00018193298216441674;;HR Coiffure;;;;;Hr Coiffure;;;;;;;hairdresser
3486754710;0.6589510;47.3870906;5471;0.00022580179361558284;;Institut Séance Beauté;;;;;;;;;;;;beauty
3486754712;0.6587740;47.3871811;41482;0.00015132868201432048;;Le fournil de Dom et Taty;;;;;;;;;;;;bakery
3486754713;0.6587160;47.3872496;41482;0.00015492101213316793;;;;;;;;;;;;;;laundry
3486772690;0.6592331;47.3878737;6861;0.0002413714979023269;;Coup' Peigne;;;;;;;;;;;;hairdresser
3486772691;0.6594122;47.3876613;6868;0.0002212872567489329;;L'atelier couture;;;;;;;;;;;;laundry
3486774295;0.6589297;47.3878346;39376;0.00010623356343365205;;Pharmacie de la Mairie;;;;;;;pharmacy;;;;;
3486774296;0.6593948;47.3876346;6868;0.00019796494639130424;;Saveurs du Portugal;;;;;;;;;;;;convenience
3487118703;0.6588842;47.3878824;39376;0.00013814666120078056;;;;;;;;;atm;;;;;
3489655420;0.6581990;47.3885651;5941;5.371126511490208e-05;;Police Municipale;;;;;;;police;;;;;
3495653587;0.6968181;47.3488959;2273;0.00014883282568120939;;Belle et Nature;;;;;;;;;;;;beauty
3495653589;0.6967668;47.3489505;16493;0.0001876870800048794;;Cabinet Kinésithérapeute;;;;;;;doctors;;;;;
3495653590;0.6962732;47.3489299;16486;0.00019252732273574658;;Cabinet Médical;;;;;;;doctors;;;;;
3495653591;0.6967235;47.3489726;16493;0.0002059682014337809;;Cabinet d'Orthophonie;;;;;;;doctors;;;;;
3495665693;0.6947582;47.3595102;37569;8.267974358737525e-05;;Épi Service;;;;;;;;;;;;convenience
3495665694;0.6976924;47.3584306;6132;6.520490779240137e-05;;L'Atelier Minceur;;;;;;;;;;;;beauty
3495665695;0.6974455;47.3590311;14288;0.0002391821272578072;;Épicerie du coin;;;;;;;;;;;;grocery
3495665696;0.6973819;47.3590109;14288;0.00030482317825250013;;Laverie de l'Alouette;;;;;;;;;;;;laundry
3497747244;0.7068229;47.3616790;31811;0.0001607355592268618;;Bohmer;;;;;;;fast_food;;;;;
3501814874;0.7267451;47.3674353;22280;0.00019337975592740512;;BNP Paribas;;;;;;;bank;;;;;
3501814876;0.7266516;47.3677144;22280;0.00013963899884672902;;Caisse d'Épargne;;;;;;;bank;;;;;
3501814880;0.7235080;47.3677541;3858;0.0003358307013955412;;Espace Béauté;;;;;;;;;;;;beauty
3501814883;0.7268537;47.3668718;4024;9.305745536750348e-05;;Inspirations Indigo;;;;;;;;;;;;gift
3501814885;0.7265354;47.3681581;37409;0.00021124890531891075;;LCL;;;;;;;bank;;;;;
3501814886;0.7273926;47.3671926;30439;0.0003412115179814678;;Le Faisan;;;;;;;restaurant;;;;;
3501814888;0.7269500;47.3665802;4024;0.000238764528355665;;PFI;;;;;;;;;;;;funeral_directors
3501814890;0.7268558;47.3667526;4024;9.874948101468629e-05;;Photographe Antoine Meunier;;;;;;;;;;;;photo
3501821996;0.7248896;47.3669201;22179;0.0005172859364028632;;Tout Net Pressing;;;;;;;;;;;;laundry
3503717004;0.7133717;47.3383747;19404;0.00010508249140936956;;L'Atelier des Atours;;;;;;;;;;;;jewelry
3503717006;0.7134468;47.3379800;19403;8.882370178829169e-05;;ça 'D' coif'F';;;;;;;;;;;;hairdresser
3508792775;0.5369534;47.3077676;36822;0.00021408991101765621;;Agence Postale Communale;;;;;;;post_office;;;;;
3508792777;0.5368792;47.3077429;36822;0.00023973201704866761;;Bibliothèque Municipale;;;;;;;library;;;;;
3508792779;0.5368515;47.3081006;36822;0.00013957772029023208;;Déesse Coiffure;;;;;;;;;;;;hairdresser
3508792780;0.5367298;47.3079295;36822;0.00019675446627630082;;La Musette Gourmande;;;;;;;;;;;;convenience
3508792781;0.5378745;47.3100034;20192;0.00016372000488715726;;Salle Polyvalente;;;;;;;community_centre;;;;;
3508880510;0.5091193;47.3392060;9087;0.0006332911889492702;;Salle Associative;;;;;;;community_centre;;;;;
3508880511;0.5109415;47.3390130;9101;0.0005398725868186382;;École primaire;;;;;;;school;;;;élémentaire;
3517649482;0.6963711;47.3728639;24387;0.00022610946464235871;;Coiffure Isabelle;;;;;;;;;;;;hairdresser
3517649488;0.6951274;47.3754551;35184;0.00013049233694001827;;Men's Coiffure;;;;;;;;;;;;hairdresser
3517649491;0.6954882;47.3727282;40267;0.00027081811239588777;;Sporteam;;;;;;;;;;;;sports
3517851267;0.6666035;47.3903876;12833;0.00010374319254841058;;Le Petit Mijoté;;;;;;;restaurant;;;;;
3520454625;0.6798330;47.3513046;12849;0.000739954762131303;;Ordi 3 Informatique;;;;;;;;;;;;computer
3520454626;0.6799280;47.3513142;12849;0.0008330012785104142;;Pizza Shop;;;;;;;fast_food;;;;;
3539738052;0.6634519;47.3511772;34885;0.0001569708571687779;;Crédit Mutuel;;;;;;;bank;;;;;
3539738054;0.6637845;47.3511872;2681;0.00017421506823505;;La Bonne Occaz';;;;;;;;;;;;second_hand
3539738055;0.6639695;47.3509037;43541;0.0002625644492299746;;La Banque Postale;;;;;;;atm;;;;;
3539738056;0.6646897;47.3512108;3980;0.0001650311485768187;;ID Coiff';;;;;;;;;;;;hairdresser
3539738057;0.6647796;47.3512135;3980;0.00022538025645500305;;Fournil Aniss;;;;;;;;;;;;bakery
3539738058;0.6650357;47.3512226;11104;0.00016390027455742817;;Rapid' Flore;;;;;;;;;;;;florist
3539738059;0.6645744;47.3508283;2640;0.00037189741865366083;;BNP Paribas;;;;;;;bank;;;;;
3539738060;0.6649091;47.3508886;596;0.000296889289129998;;Banque Populaire;;;;;;;bank;;;;;
3539741446;0.6631461;47.3497625;25030;0.0001551813455278437;;Tendances Figaro;;;;;;;;;;;;hairdresser
3541884162;0.6898573;47.3888969;14882;0.00025189624848239193;;Clip's;;;;;;;;;;;;jewelry
3541884163;0.6891254;47.3885987;14873;0.00015426010501631306;;Burger King;;;;;;;fast_food;;;;;
3559570363;0.7012271;47.3917278;8073;6.937759004337032e-05;;Charcutier Traiteur Goulay;;;;;;;;;;;;butcher
3577422411;0.6805893;47.3940513;12244;9.249178341888079e-05;;David Ricosse;;;;;;;;;;;;hairdresser
3577422418;0.6818864;47.3909681;18196;0.00018575696487910465;;Bureau Vallée;;;;;;;;;;;;stationery
3577422421;0.6798400;47.3920797;33677;0.0001390479773326365;;La Maison des Halles;;;;;;;restaurant;;;;;
3577422423;0.6786832;47.3924573;16214;8.180220046319556e-05;;Le Piccata;;;;;;;restaurant;;;;;
3577422426;0.6804482;47.3934480;23602;0.00012371034718264328;;La dentelle;;;;;;;restaurant;;;;;
3577422428;0.6804142;47.3936444;23602;0.00014835420452415988;;Les Burgers de Papa;;;;;;;fast_food;;;;;
3577422429;0.6810629;47.3909157;23443;0.00013480089020239018;;La trattoria des Halles;;;;;;;restaurant;;;;;
3577422430;0.6806320;47.3915085;21428;8.561687917947499e-05;;Le Jaja;;;;;;;restaurant;;;;;
3577422431;0.6807700;47.3913193;38955;0.00025679926012100356;;Le Mastroquet;;;;;;;restaurant;;;;;
3577422435;0.6804206;47.3936014;23602;0.0001181660272676148;;Le Zinc;;;;;;;restaurant;;;;;
3577422437;0.6807714;47.3935127;23602;0.00024894376875073224;;Le Livre;;;;;;;;;;;;books
3577422439;0.6800975;47.3918947;21664;0.00013592516323014732;;Les Grands Ducs;;;;;;;restaurant;;;;;
3577422446;0.6787900;47.3929111;18113;0.00011868344450971849;;P2P;;;;;;;;;;;;computer
3577422447;0.6816536;47.3912997;7627;0.00010780139145611837;;Pharmacie Paillhou;;;;;;;pharmacy;;;;;
3577422448;0.6811146;47.3920918;13431;0.0001921337294694511;;Pharmacie des Halles;;;;;;;pharmacy;;;;;
3577422449;0.6804585;47.3933234;15425;0.0002018234129136148;;Pharmacie du Grand Marché;;;;;;;pharmacy;;;;;
3577422451;0.6807360;47.3937813;12244;0.00022292070339067523;;Frenchy's Burger;Le Frenchy resto;;;;;;restaurant;;;;;
3577422454;0.6807800;47.3934047;12247;0.00012714943963694348;;Gomu;;;;;;;fast_food;;;;;
3577422455;0.6805590;47.3927672;33558;0.00013332936660842757;;Véronique Van Uffelen;;;;;;;;;;;;florist
3577422457;0.6803888;47.3938058;23608;0.00010292531272652047;;Wazawok;;;;;;;fast_food;;;;;
3577422458;0.6803670;47.3939877;23608;0.00017522103183928694;;David Création;;;;;;;;;;;;hairdresser
3577422462;0.6790782;47.3929565;18113;0.00028161264176299793;;;;;;;;;atm;;;;;
3577423106;0.6809980;47.3910435;34829;0.00010448698483558681;;O&A;;;;;;;restaurant;;;;;
3577423107;0.6811600;47.3919967;13431;0.00010562310353021684;;Caisse d'Épargne;;;;;;;bank;;;;;
3577423108;0.6804565;47.3932179;15425;0.00013834464210945167;;Chapellerie Brun;;;;;;;;;;;;clothes
3577423110;0.6803822;47.3916921;34830;0.00011692771271190618;;Tutu;;;;;;Les steppes de Mongolie (restaurant);restaurant;;;;;
3577423111;0.6804875;47.3930987;15425;0.00011816801597533604;;Coco Miel;;;;;;;;;;;;beauty
3577423115;0.6804133;47.3933968;15425;0.0002875635060281647;;Le Bœuf sur la Place;;;;;;;restaurant;;;;;
3577423116;0.6799270;47.3920271;13458;7.985417960302586e-05;;Au café d'en face;;;;;;;restaurant;;;;;
3577423118;0.6802748;47.3917469;33690;8.985059821759284e-05;;La Bodega;;;;;;;restaurant;;;;;
3577423120;0.6802937;47.3926514;15258;8.886000224927921e-05;;Crédit Agricole;;;;;;;bank;;;;;
3577423121;0.6787634;47.3924718;16214;0.00010423746926950503;;Paul Meunier;;;;;;Le Fournil Maxipaul;;;;;;bakery
3577423122;0.6806579;47.3914764;38955;0.0001119616005557167;;Tahina;;;;;;;restaurant;;;;;
3577423129;0.6807914;47.3933563;12247;9.40490297683746e-05;;Milano Pizza;;;;;;;fast_food;;;;;
3577423131;0.6803715;47.3939040;23608;0.00011950167362763878;;Monsieur Chris;;;;;;;;;;;;clothes
3577423132;0.6809403;47.3923525;33676;9.1902611500831e-05;;E. Leclerc Relais;;;;;;;;;;;;convenience
3577423140;0.6810165;47.3921827;33676;0.00012518166798577277;;;;;;;;;atm;;;;;
3577423142;0.6802151;47.3926156;33706;0.00014688335508020883;;;;;;;;;atm;;;;;
3577423288;0.6803790;47.3938681;23608;0.00010192237242111954;;Monster Market;;;;;;;;;;;;convenience
3577423290;0.6807060;47.3928627;21500;0.00018201098868447451;;Au nom de la rose;;;;;;;;;;;;florist
3577423293;0.6814513;47.3915805;39447;9.706600847317538e-05;;Société Générale;;;;;;;bank;;;;;
3577423295;0.6809499;47.3911035;34829;0.00013914776318710084;;Au D Tours des Halles;;;;;;;restaurant;;;;;
3577423297;0.6804381;47.3934977;23602;9.87320110207013e-05;;Les Blés de Demain;;;;;;;;;;;;bakery
3577423301;0.6820274;47.3905413;37956;8.004579938969957e-05;;Histoires de nanas;;;;;;;;;;;;beauty
3577423302;0.6807095;47.3931233;15425;0.00013187039091478963;;McDonald's;;;;;;;fast_food;;;;;
3577423303;0.6807627;47.3935837;23602;0.00024117663651376719;;Santosha;;;;;;;fast_food;;;;;
3577423305;0.6807598;47.3936647;32373;0.0002616139331135011;;Les Frérots;;;;;;;restaurant;;;;;
3577423306;0.6791102;47.3929725;18113;0.00030934783012060986;;LCL;;;;;;;bank;;;;;
3577423307;0.6812761;47.3918361;13432;0.00012093303931960443;;Saveurs Rôties;;;;;;;fast_food;;;;;
3577423308;0.6796465;47.3930115;23598;0.00017371093805512418;;Pizza des Halles;;;;;;;fast_food;;;;;
3577423309;0.6807005;47.3929755;15425;0.0002228492764188245;;ITMAKI;;;;;;;fast_food;;;;;
3577423311;0.6808036;47.3926425;3938;0.00012330016220654137;;Quincaillerie des Halles;;;;;;;;;;;;doityourself
3577423312;0.6815714;47.3914030;12316;8.699080410910191e-05;;Quiproquo;;;;;;;;;;;;clothes
3577423317;0.6810664;47.3921826;33676;0.00016666508332541558;;Société Générale;;;;;;;bank;;;;;
3577423334;0.6817144;47.3912188;7627;0.00017919522873270738;;L’Atelier du Talmenier;;;;;;;;;;;;bakery
3577423335;0.6815192;47.3914901;39447;0.00013238315602800987;;Élégance coiffure;;;;;;;;;;;;hairdresser
3581077494;0.6787424;47.3666581;36668;6.567876369264165e-05;;;;;;;;;vending_machine;;;;;
3581077495;0.6787858;47.3666775;36668;7.75279304519383e-05;;Caisse d'Épargne;;;;;;;atm;;;;;
3593269421;0.6920065;47.3873916;30023;0.00013764610419378815;;Librairie Saint-Etienne;;;;;;;;;;;;books
3594060409;0.6926938;47.3897207;22524;0.00013490989585702762;;Briocherie Lelong;;;;;;;;;;;;bakery
3594064285;0.6910402;47.3898014;7955;4.392413915079236e-05;;La Grignotine;;;;;;;fast_food;;;;;
3594064287;0.6912217;47.3894213;13819;0.00035781806829687037;;Bagel Corner;;;;;;;fast_food;;;;;
3594084957;0.6928849;47.3884818;13807;0.00021305128490479278;;Isaan;;;;;;;restaurant;;;;;
3595184544;0.6928037;47.3891723;20010;0.00023510019140688844;;Summum;;;;;;;fast_food;;;;;
3595184545;0.6919827;47.3892700;13941;0.00047082163289283944;;Ristorante Enoteca Italiana;;;;;;;restaurant;;;;;
3607432586;0.6978145;47.4347244;24485;0.00020319768699480088;;Gus;;;;;;;restaurant;;;;;
3607432587;0.7043980;47.4367358;24505;0.00030660805599396434;;Il Napoli;;;;;;;restaurant;;;;;
3607432590;0.6706519;47.4142752;43635;0.00033050006051020385;;Crédit Agricole;;;;;;;bank;;;;;
3607432591;0.6704765;47.4143943;22043;0.00016291939725116217;;;;;;;;;;;;;;hairdresser
3607435614;0.6736645;47.4254316;10761;0.00033618169194659465;;Pharmacie Hogreul;;;;;;;pharmacy;;;;;
3609416518;0.6879059;47.3884423;41329;0.00017469270162116948;;Auchan;;;;;;;;;;;;supermarket
3619090993;0.6882252;47.3920696;24237;8.75961757172401e-05;;Yves Rocher;;;;;;;;;;;;beauty
3621479604;0.7084979;47.3782909;10213;0.0003058239526257125;;École primaire privée Sainte-Marguerite;;;;;;;school;;;;primaire;
3637778874;0.6934174;47.3870572;13844;0.00028740173973033456;;L'Atlas;;;;;;;restaurant;;;;;
3645113235;0.6767378;47.3838865;30572;0.00021258318372116891;;Auchan Supermarché Rabelais;;;;;;;;;;;;supermarket
3646633567;0.6769927;47.3843887;20488;0.00012070501231996437;;Crédit Agricole;;;;;;;bank;;;;;
3646633568;0.6767137;47.3843451;20485;0.0001249317413661717;;Caisse d'Épargne;;;;;;;bank;;;;;
3646633569;0.6768532;47.3854674;11820;0.00015226358724611047;;Épicerie Rabelais;;;;;;;;;;;;convenience
3646633571;0.6768049;47.3861884;25354;0.00017884188547371047;;Pharmacie Saint-Éloi;;;;;;;pharmacy;;;;;
3667700294;0.6873167;47.3897554;14948;0.00042842424068083226;;CIC;;;;;;;bank;;;;;
3669532477;0.6833239;47.4108261;37444;0.00040071602164120653;;LCL;;;;;;;bank;;;;;
3671992753;0.6814265;47.3941979;29780;0.00011186107455278462;;Le Cappuccino;;;;;;;restaurant;;;;;
3693029986;0.6804895;47.3933322;15425;0.00019162131927637042;;;;;;;;;vending_machine;;;;;
3693029987;0.6775772;47.3938393;12670;0.00019400909772425117;;;;;;;;;vending_machine;;;;;
3699813292;0.6855477;47.3947655;13302;0.00012573631138226342;;Le Plazza;;;;;;;restaurant;;;;;
3699813294;0.6852774;47.3947098;5595;0.00014606002190975084;;Inside;;;;;;;;;;;;hairdresser
3699861136;0.6938785;47.3801108;31388;0.00018913619431496715;;;;;;;;;vending_machine;;;;;
3699903277;0.6826379;47.3942130;35700;0.0003149301509857833;;La Deuvalière;;;;;;;restaurant;;;;;
3710627732;0.6964709;47.3450260;20414;0.0005932916989116024;;École primaire Claude Chappe;;;;;;;school;;;;primaire;
3710627733;0.6971613;47.3449245;32656;0.00045767073316767346;;École maternelle Paul Émile Victor;;;;;;;school;;;;maternelle;
3722706281;0.6354477;47.3997754;43368;0.0008516079497024579;;Pharmacie des Hautes Roches;;;;;;;pharmacy;;;;;
3722706287;0.6361900;47.4000132;18297;0.0011972845442935016;;;;;;;;;doctors;;;;;
3763117666;0.5155018;47.3300072;3984;0.0005075442246717304;;L´Etape Gourmande;;;;;;;restaurant;;;;;
3769000228;0.6402441;47.3856525;8657;0.00028215956478299943;;"Centre de loisirs ""Tot’aime""";;;;;;;community_centre;;;;;
3778559094;0.6767327;47.3862858;25354;0.00020544376359492934;;;;;;;;;vending_machine;;;;;
3779243248;0.5992962;47.3782262;41778;0.00015512088834022722;;Mairie de Saint-Genouph;;;;;;;townhall;;;;;
3791409117;0.6577961;47.3883411;32574;9.41332034927052e-05;;Salle Ronsard;;;;;;;community_centre;;;;;
3792349336;0.7340919;47.3627546;34397;0.00020215174992857074;;;;;;;;;;;;;;newsagent
3796852204;0.6662291;47.3806089;19149;0.00016178692777873337;;Active;;;;;;;;;;;;second_hand
3796854277;0.6705517;47.3789847;3992;0.00036164934674173045;;Ressourcerie La Charpentière;;;;;;;community_centre;;;;;variety_store
3796952182;0.6659486;47.3847812;26643;0.0004479363459232475;;Le Clair;;;;;;;restaurant;;;;;
3797074524;0.6556847;47.3783566;14697;0.0008970672772923217;;Intermarché;;;;;;;;;;;;supermarket
3797960973;0.6898791;47.3882749;14861;5.651911181312056e-05;;;;;;;;;vending_machine;;;;;
3797960975;0.7576255;47.4087393;5443;1.798054504190647e-05;;;;;;;;;vending_machine;;;;;
3811697164;0.6696024;47.3794871;43438;0.00016121222037894083;;KIS Wash;;;;;;;;;;;;laundry
3811697177;0.6714255;47.3802628;24288;0.0002662378823543342;;Pharmacie Gomez;;;;;;;pharmacy;;;;;
3811697178;0.6699762;47.3795398;42487;0.0001741014072310908;;Pompes Funèbres Intercommunale;;;;;;;;;;;;funeral_directors
3815638025;0.6903056;47.3961028;27392;0.00022338813755391589;;;;;;;;;vending_machine;;;;;
3817284375;0.7034944;47.3856927;7523;0.00011371701719522874;;;;;;;;;vending_machine;;;;;
3824393672;0.6439246;47.3802835;22638;0.0005943997055853663;;La Table du Bon Accueil;;;;;;;restaurant;;;;;
3824394019;0.6561414;47.3858389;43412;0.00044965251027825117;;École primaire Ferdinand Buisson;;;;;;;school;;;;primaire;
3824394020;0.6555769;47.3857234;38735;0.00040522470309528293;;École élémentaire Paul Bert;;;;;;;school;;;;élémentaire;
3832546896;0.6998998;47.3952823;11047;0.00010653041818738264;;;;;;;;;vending_machine;;;;;
3839371322;0.7028966;47.3866524;23694;0.00022999836955818218;;Allo Couscous- La Rose des Sables;;;;;;;fast_food;;;;;
3841450802;0.6577110;47.4225834;32163;0.0003476384616215302;;Terre Y Fruits;;;;;;;;;;;;greengrocer
3846531603;0.6816482;47.3929935;39349;5.369543742646558e-05;;;;;;;;;vending_machine;;;;;
3846531604;0.6815958;47.3929760;39349;8.346310562121944e-05;;Pharmacie Charlemagne;;;;;;;pharmacy;;;;;
3908393667;0.6128724;47.3407292;43591;0.00015219845597164999;;Sarah Coiffure;;;;;;;;;;;;hairdresser
3913299574;0.6851187;47.3874237;4974;7.134816045389871e-05;;Pharmacie d'Entraigues;;;;;;;pharmacy;;;;;
3932040047;0.6939511;47.3890825;22512;6.48450460695426e-05;;;;;;;;;vending_machine;;;;;
3932040048;0.6939438;47.3890892;22512;6.784880249350225e-05;;;;;;;;;vending_machine;;;;;
3932040054;0.6939718;47.3891652;22512;5.7077666388140865e-05;;;;;;;;;vending_machine;;;;;
3932040055;0.6939589;47.3891658;22512;6.583623622527133e-05;;;;;;;;;vending_machine;;;;;
3932040056;0.6939688;47.3891705;22512;6.313834017569368e-05;;;;;;;;;vending_machine;;;;;
3932047463;0.6938977;47.3892212;7868;3.2245619858251404e-05;;;;;;;;;vending_machine;;;;;
3932047465;0.6939081;47.3892257;7868;2.0950656317008456e-05;;;;;;;;;vending_machine;;;;;
3932047470;0.6944338;47.3893037;22517;0.00024341635113542883;;;;;;;;;vending_machine;;;;;
3932047477;0.6939449;47.3893068;22513;5.654679478042059e-05;;;;;;;;;vending_machine;;;;;
3932047485;0.6935749;47.3893561;7649;0.00018783740309020813;;;;;;;;;vending_machine;;;;;
3932047488;0.6935617;47.3893654;6329;0.00020207820268326255;;;;;;;;;vending_machine;;;;;
3932047489;0.6940708;47.3893669;22515;5.464430436783317e-05;;;;;;;;;vending_machine;;;;;
3932047504;0.6942157;47.3894917;7881;8.8842557368927e-06;;;;;;;;;vending_machine;;;;;
3932047520;0.6933802;47.3895301;20565;0.0001158856764218055;;;;;;;;;vending_machine;;;;;
3932047522;0.6933665;47.3895398;7895;0.00012157178949202329;;;;;;;;;vending_machine;;;;;
3932047525;0.6933790;47.3895477;7895;0.0001132143100508249;;;;;;;;;vending_machine;;;;;
3932047529;0.6941201;47.3896020;7881;0.00013901028738603255;;;;;;;;;vending_machine;;;;;
3932047530;0.6935439;47.3896111;20565;7.502386287537257e-05;;;;;;;;;vending_machine;;;;;
3932047531;0.6941070;47.3896113;7881;0.00015452132538768397;;;;;;;;;vending_machine;;;;;
3932047533;0.6935359;47.3896172;20565;7.478803380791219e-05;;;;;;;;;vending_machine;;;;;
3932047536;0.6936294;47.3896464;20559;3.122002562382205e-05;;;;;;;;;vending_machine;;;;;
3932047537;0.6936115;47.3896560;20559;5.0676424498647795e-05;;;;;;;;;vending_machine;;;;;
3932047539;0.6936929;47.3896853;20559;5.358180660851386e-05;;;;;;;;;vending_machine;;;;;
3932047541;0.6936762;47.3896959;20559;5.5496666563134284e-05;;;;;;;;;vending_machine;;;;;
3932047542;0.6935030;47.3897030;7895;0.00013265764206985619;;;;;;;;;vending_machine;;;;;
3932047544;0.6935237;47.3897158;20559;0.0001550177409175886;;;;;;;;;vending_machine;;;;;
3932047545;0.6937645;47.3897252;20560;7.904713783563932e-05;;;;;;;;;vending_machine;;;;;
3932047547;0.6937564;47.3897313;20560;8.641556572741932e-05;;;;;;;;;vending_machine;;;;;
3932047549;0.6936065;47.3897561;20559;0.00012555783527600794;;;;;;;;;vending_machine;;;;;
3932047550;0.6936393;47.3897696;7916;0.00011047434091377689;;;;;;;;;vending_machine;;;;;
3932047555;0.6927800;47.3899078;29947;7.429939434483821e-05;;;;;;;;;vending_machine;;;;;
3932047757;0.6928004;47.3899137;29947;5.653078807084015e-05;;;;;;;;;vending_machine;;;;;
3934369890;0.6763883;47.3662825;37291;9.932381386017469e-05;;;;;;;;;vending_machine;;;;;
3935757518;0.7043135;47.4265600;7543;0.00022237681983474085;;Blue Box;;;;;;;;;;;;clothes
3935762102;0.7015220;47.4225165;28452;0.0004199191469801134;;ALDI;;;;;;;;;;;;supermarket
3935764504;0.7021940;47.4223197;25723;0.0002580237392188712;;EsthétiCity;;;;;;;;;;;;beauty
3935769957;0.7022165;47.4225855;25680;0.0003460317471011069;;Pharmacie de l'Horloge;;;;;;;pharmacy;;;;;
3935773345;0.7023109;47.4230421;25680;0.0002775720627171584;;Les Bouchers de l'Horloge;;;;;;;;;;;;butcher
3935779383;0.7019495;47.4234168;25677;0.00037069977070056104;;Mince & Zen;;;;;;;;;;;;beauty
